{"1": [{"StopAreaNumber": 10052, "StopAreaName": "Frihamnsporten", "lon": 18.1141866234888, "lat": 59.3404673268406}, {"StopAreaNumber": 10421, "StopAreaName": "Mariebergsgatan", "lon": 18.0244430977815, "lat": 59.3319391823337}, {"StopAreaNumber": 10054, "StopAreaName": "Sehlstedtsgatan", "lon": 18.112046802643, "lat": 59.3422241294883}, {"StopAreaNumber": 10645, "StopAreaName": "V\u00e4sterbroplan", "lon": 18.0211227966964, "lat": 59.3281792641087}, {"StopAreaNumber": 10056, "StopAreaName": "\u00d6sthammarsgatan", "lon": 18.1103663414638, "lat": 59.3429363311287}, {"StopAreaNumber": 10462, "StopAreaName": "Fyrverkarbacken", "lon": 18.0176013384237, "lat": 59.3271255877896}, {"StopAreaNumber": 10058, "StopAreaName": "R\u00f6kubbsgatan", "lon": 18.1095887136959, "lat": 59.3448658114512}, {"StopAreaNumber": 10449, "StopAreaName": "Wivalliusgatan", "lon": 18.0132052570401, "lat": 59.3265356235128}, {"StopAreaNumber": 10060, "StopAreaName": "Sandhamnsplan", "lon": 18.107433321524, "lat": 59.346789684845}, {"StopAreaNumber": 10451, "StopAreaName": "Lilla Essingen", "lon": 18.008771906502, "lat": 59.3255031425848}, {"StopAreaNumber": 10062, "StopAreaName": "G\u00e4rdet", "lon": 18.1023681765581, "lat": 59.3483381051391}, {"StopAreaNumber": 10453, "StopAreaName": "Primusgatan", "lon": 18.0028120075063, "lat": 59.3257234865}, {"StopAreaNumber": 10155, "StopAreaName": "Kampementsbacken", "lon": 18.1018182814185, "lat": 59.3458025183212}, {"StopAreaNumber": 10455, "StopAreaName": "Broparken", "lon": 17.9943583048312, "lat": 59.324085769409}, {"StopAreaNumber": 10153, "StopAreaName": "Storsk\u00e4rsgatan", "lon": 18.0975261208105, "lat": 59.3421015726862}, {"StopAreaNumber": 10733, "StopAreaName": "Flottbrov\u00e4gen", "lon": 17.9901911233012, "lat": 59.3223617375056}, {"StopAreaNumber": 10045, "StopAreaName": "V\u00e4rtav\u00e4gen", "lon": 18.0933420652637, "lat": 59.3401411050351}, {"StopAreaNumber": 10736, "StopAreaName": "Essingetorget", "lon": 17.9885287802536, "lat": 59.3205487593802}, {"StopAreaNumber": 10040, "StopAreaName": "Jungfrugatan", "lon": 18.0859050014573, "lat": 59.3419596385908}, {"StopAreaNumber": 10037, "StopAreaName": "Nybrogatan", "lon": 18.0817693654076, "lat": 59.3404933525995}, {"StopAreaNumber": 10034, "StopAreaName": "Humleg\u00e5rden", "lon": 18.0763181281101, "lat": 59.3405554941255}, {"StopAreaNumber": 10031, "StopAreaName": "Stureplan", "lon": 18.073299572224, "lat": 59.3358846094887}, {"StopAreaNumber": 10505, "StopAreaName": "Regeringsgatan", "lon": 18.0670809682428, "lat": 59.3359272021299}, {"StopAreaNumber": 10024, "StopAreaName": "H\u00f6torget", "lon": 18.0625386633883, "lat": 59.3355595203735}, {"StopAreaNumber": 10910, "StopAreaName": "Cityterminalen", "lon": 18.0554358125231, "lat": 59.3315425957525}, {"StopAreaNumber": 10016, "StopAreaName": "Kungsbroplan", "lon": 18.0484186459265, "lat": 59.332399878638}, {"StopAreaNumber": 10014, "StopAreaName": "Scheelegatan", "lon": 18.0442092344558, "lat": 59.3329302135196}, {"StopAreaNumber": 10012, "StopAreaName": "S:t Eriks \u00f6gonsjukhus", "lon": 18.0382003490314, "lat": 59.3337606392979}, {"StopAreaNumber": 10008, "StopAreaName": "S:t Eriksgatan", "lon": 18.0315098772444, "lat": 59.334638639659}, {"StopAreaNumber": 10369, "StopAreaName": "Fridhemsplan", "lon": 18.0291665515036, "lat": 59.3321460417083}, {"StopAreaNumber": 10028, "StopAreaName": "Frihamnen", "lon": 18.1181997061963, "lat": 59.3416182276914}, {"StopAreaNumber": 10033, "StopAreaName": "Linn\u00e9gatan", "lon": 18.0749088904638, "lat": 59.3386673135182}], "10": [{"StopAreaNumber": 1051, "StopAreaName": "T-Centralen", "lon": 18.0616942408464, "lat": 59.3316604098912}, {"StopAreaNumber": 3131, "StopAreaName": "R\u00e5dhuset", "lon": 18.0449590318823, "lat": 59.3301695067441}, {"StopAreaNumber": 1151, "StopAreaName": "Fridhemsplan", "lon": 18.031315428395, "lat": 59.3330253037509}, {"StopAreaNumber": 3161, "StopAreaName": "Stadshagen", "lon": 18.0156447380523, "lat": 59.3374495636208}, {"StopAreaNumber": 3201, "StopAreaName": "V\u00e4stra skogen", "lon": 18.0034026858877, "lat": 59.3480220946179}, {"StopAreaNumber": 3411, "StopAreaName": "Huvudsta", "lon": 17.9868426179336, "lat": 59.3496171953934}, {"StopAreaNumber": 3421, "StopAreaName": "Solna strand", "lon": 17.9732119271177, "lat": 59.3546692570848}, {"StopAreaNumber": 3431, "StopAreaName": "Sundbybergs centrum", "lon": 17.9723198232422, "lat": 59.3606707558083}, {"StopAreaNumber": 3441, "StopAreaName": "Duvbo", "lon": 17.9627373959775, "lat": 59.3679324257087}, {"StopAreaNumber": 3451, "StopAreaName": "Rissne", "lon": 17.9398008724112, "lat": 59.3759826842921}, {"StopAreaNumber": 3461, "StopAreaName": "Rinkeby", "lon": 17.9280643296669, "lat": 59.3881571353562}, {"StopAreaNumber": 3471, "StopAreaName": "Tensta", "lon": 17.902650095818, "lat": 59.3942969186763}, {"StopAreaNumber": 3481, "StopAreaName": "Hjulsta", "lon": 17.8891675660494, "lat": 59.3972246127607}, {"StopAreaNumber": 3031, "StopAreaName": "Kungstr\u00e4dg\u00e5rden", "lon": 18.0733224960359, "lat": 59.330954240685}], "11": [{"StopAreaNumber": 1051, "StopAreaName": "T-Centralen", "lon": 18.0616942408464, "lat": 59.3316604098912}, {"StopAreaNumber": 3131, "StopAreaName": "R\u00e5dhuset", "lon": 18.0449590318823, "lat": 59.3301695067441}, {"StopAreaNumber": 1151, "StopAreaName": "Fridhemsplan", "lon": 18.031315428395, "lat": 59.3330253037509}, {"StopAreaNumber": 3161, "StopAreaName": "Stadshagen", "lon": 18.0156447380523, "lat": 59.3374495636208}, {"StopAreaNumber": 3201, "StopAreaName": "V\u00e4stra skogen", "lon": 18.0034026858877, "lat": 59.3480220946179}, {"StopAreaNumber": 3211, "StopAreaName": "Solna centrum", "lon": 17.9982525220158, "lat": 59.3596805999798}, {"StopAreaNumber": 3221, "StopAreaName": "N\u00e4ckrosen", "lon": 17.9817417340269, "lat": 59.3673114449406}, {"StopAreaNumber": 3231, "StopAreaName": "Hallonbergen", "lon": 17.9691986868558, "lat": 59.3743625313266}, {"StopAreaNumber": 3251, "StopAreaName": "Kista", "lon": 17.94243341699, "lat": 59.4028645133038}, {"StopAreaNumber": 3261, "StopAreaName": "Husby", "lon": 17.9265984961048, "lat": 59.4095789686322}, {"StopAreaNumber": 3271, "StopAreaName": "Akalla", "lon": 17.9170715115533, "lat": 59.4135765757903}, {"StopAreaNumber": 3031, "StopAreaName": "Kungstr\u00e4dg\u00e5rden", "lon": 18.0733224960359, "lat": 59.330954240685}], "112": [{"StopAreaNumber": 12129, "StopAreaName": "Sp\u00e5ngav\u00e4gen", "lon": 17.9058868676965, "lat": 59.378315475049}, {"StopAreaNumber": 12127, "StopAreaName": "Logv\u00e4gen", "lon": 17.9092087392821, "lat": 59.37711259575}, {"StopAreaNumber": 12125, "StopAreaName": "Herdev\u00e4gen", "lon": 17.9136555137223, "lat": 59.3753257551835}, {"StopAreaNumber": 12023, "StopAreaName": "Gamla Bromstensv\u00e4gen", "lon": 17.9191843746898, "lat": 59.3728387948257}, {"StopAreaNumber": 12121, "StopAreaName": "Vandrarstigen", "lon": 17.9218168676063, "lat": 59.3704704453758}, {"StopAreaNumber": 12119, "StopAreaName": "Ankarstocksv\u00e4gen", "lon": 17.9297147086202, "lat": 59.366220512165}, {"StopAreaNumber": 12117, "StopAreaName": "Skorpv\u00e4gen", "lon": 17.9331838877216, "lat": 59.364592564774}, {"StopAreaNumber": 12115, "StopAreaName": "Solvalla", "lon": 17.9400186378074, "lat": 59.3613829744613}, {"StopAreaNumber": 12113, "StopAreaName": "Marieh\u00e4llskyrkan", "lon": 17.9489844223485, "lat": 59.3608902263288}, {"StopAreaNumber": 12111, "StopAreaName": "Marieh\u00e4ll", "lon": 17.9536103267822, "lat": 59.3606120811818}, {"StopAreaNumber": 12107, "StopAreaName": "Karlsbodav\u00e4gen", "lon": 17.9616763123045, "lat": 59.3570308363468}, {"StopAreaNumber": 12105, "StopAreaName": "Sm\u00e4ltv\u00e4gen", "lon": 17.9605666987583, "lat": 59.3545079627853}, {"StopAreaNumber": 12041, "StopAreaName": "Lintav\u00e4gen", "lon": 17.9601872086, "lat": 59.3496293537078}, {"StopAreaNumber": 12039, "StopAreaName": "Ranhammarsv\u00e4gen", "lon": 17.9609892635251, "lat": 59.3484128365049}, {"StopAreaNumber": 12037, "StopAreaName": "Ekbacksv\u00e4gen", "lon": 17.9630353483654, "lat": 59.3468524706325}, {"StopAreaNumber": 12033, "StopAreaName": "Ulvsunda slott", "lon": 17.9625350358039, "lat": 59.3400721892711}, {"StopAreaNumber": 12030, "StopAreaName": "Grenv\u00e4gen", "lon": 17.9673241829724, "lat": 59.3360463327971}, {"StopAreaNumber": 12029, "StopAreaName": "Ulvsundaplan", "lon": 17.9697241253583, "lat": 59.3352297765497}, {"StopAreaNumber": 12047, "StopAreaName": "Grindstuv\u00e4gen", "lon": 17.9738779909036, "lat": 59.3364268748863}, {"StopAreaNumber": 12045, "StopAreaName": "Tranebergsplan", "lon": 17.978586658552, "lat": 59.3348847896394}, {"StopAreaNumber": 12025, "StopAreaName": "Alvik", "lon": 17.9806591444593, "lat": 59.332937562085}, {"StopAreaNumber": 12035, "StopAreaName": "Norrbyv\u00e4gen", "lon": 17.9610010571575, "lat": 59.3452697931754}, {"StopAreaNumber": 12109, "StopAreaName": "B\u00e4llsta bro", "lon": 17.9600752675631, "lat": 59.3597960593893}, {"StopAreaNumber": 12138, "StopAreaName": "Sp\u00e5nga station", "lon": 17.8989657526603, "lat": 59.382799652546}], "113": [{"StopAreaNumber": 12179, "StopAreaName": "M\u00e4larbacken", "lon": 17.881036485228, "lat": 59.3412558769502}, {"StopAreaNumber": 12091, "StopAreaName": "Blackebergs grindstuga", "lon": 17.8845062251186, "lat": 59.3410793755939}, {"StopAreaNumber": 12177, "StopAreaName": "Aroseniusv\u00e4gen", "lon": 17.8893236196142, "lat": 59.3429599745688}, {"StopAreaNumber": 12173, "StopAreaName": "Islandstorget", "lon": 17.89335919655, "lat": 59.3464153334531}, {"StopAreaNumber": 12171, "StopAreaName": "Bergslagsv\u00e4gen", "lon": 17.8947456705486, "lat": 59.347663708743}, {"StopAreaNumber": 12169, "StopAreaName": "Runstensplan", "lon": 17.9007023919456, "lat": 59.351317031439}, {"StopAreaNumber": 12167, "StopAreaName": "Vassv\u00e4gen", "lon": 17.9060661856644, "lat": 59.3541759881652}, {"StopAreaNumber": 12165, "StopAreaName": "Sp\u00e5ngav\u00e4gen", "lon": 17.9099951661612, "lat": 59.3562856632845}, {"StopAreaNumber": 12163, "StopAreaName": "Dr Abrahams v\u00e4g", "lon": 17.9172578816965, "lat": 59.3582604740933}, {"StopAreaNumber": 12115, "StopAreaName": "Solvalla", "lon": 17.9400186378074, "lat": 59.3613829744613}, {"StopAreaNumber": 12113, "StopAreaName": "Marieh\u00e4llskyrkan", "lon": 17.9489844223485, "lat": 59.3608902263288}, {"StopAreaNumber": 12111, "StopAreaName": "Marieh\u00e4ll", "lon": 17.9536103267822, "lat": 59.3606120811818}, {"StopAreaNumber": 50242, "StopAreaName": "Sundbybergs torg", "lon": 17.9670403727707, "lat": 59.3611803986948}, {"StopAreaNumber": 50241, "StopAreaName": "Gjuteribacken", "lon": 17.9739155956623, "lat": 59.3592164801391}, {"StopAreaNumber": 50240, "StopAreaName": "Tritonv\u00e4gen", "lon": 17.9754178767996, "lat": 59.3571261874874}, {"StopAreaNumber": 50051, "StopAreaName": "Vretenv\u00e4gen", "lon": 17.977359744898, "lat": 59.3558636578795}, {"StopAreaNumber": 50237, "StopAreaName": "Huvudstaleden", "lon": 17.9814408810829, "lat": 59.3520331682923}, {"StopAreaNumber": 12175, "StopAreaName": "Huvudsta centrum", "lon": 17.9844052376253, "lat": 59.3499961791443}, {"StopAreaNumber": 50130, "StopAreaName": "R\u00f6dbetan", "lon": 17.9821856198784, "lat": 59.350206855562}, {"StopAreaNumber": 50132, "StopAreaName": "Biddlesberg", "lon": 17.9841310201026, "lat": 59.3479115004067}, {"StopAreaNumber": 50134, "StopAreaName": "Skoga", "lon": 17.9870430927274, "lat": 59.3483566921977}, {"StopAreaNumber": 50137, "StopAreaName": "Huvudsta all\u00e9", "lon": 17.9865169844818, "lat": 59.3492005993986}, {"StopAreaNumber": 50126, "StopAreaName": "Sl\u00e4ggbacken", "lon": 17.9901847568194, "lat": 59.3496375701696}, {"StopAreaNumber": 50125, "StopAreaName": "Krysshammarv\u00e4gen", "lon": 17.9953869697111, "lat": 59.3491215282294}, {"StopAreaNumber": 50121, "StopAreaName": "V\u00e4stra skogen", "lon": 18.003034996297, "lat": 59.3475997670566}, {"StopAreaNumber": 12504, "StopAreaName": "Arm\u00e9gatan", "lon": 18.0025949361838, "lat": 59.3524836432479}, {"StopAreaNumber": 50231, "StopAreaName": "Storgatan", "lon": 17.9981579402334, "lat": 59.3541237800489}, {"StopAreaNumber": 12506, "StopAreaName": "Solna centrum", "lon": 17.9975546587632, "lat": 59.3586776301185}, {"StopAreaNumber": 12557, "StopAreaName": "L\u00f6fstr\u00f6ms all\u00e9", "lon": 17.964594628584, "lat": 59.3611670312708}, {"StopAreaNumber": 12109, "StopAreaName": "B\u00e4llsta bro", "lon": 17.9600752675631, "lat": 59.3597960593893}, {"StopAreaNumber": 12181, "StopAreaName": "Blackebergs g\u00e5rd", "lon": 17.877295902478, "lat": 59.3423255442338}], "114": [{"StopAreaNumber": 12045, "StopAreaName": "Tranebergsplan", "lon": 17.978586658552, "lat": 59.3348847896394}, {"StopAreaNumber": 17043, "StopAreaName": "Hunnebergsv\u00e4gen", "lon": 17.9825652974204, "lat": 59.3341628913745}, {"StopAreaNumber": 12099, "StopAreaName": "Alvik s\u00f6dra", "lon": 17.9845538533725, "lat": 59.3336537445116}, {"StopAreaNumber": 12410, "StopAreaName": "Tranebergsslingan", "lon": 17.9896497631147, "lat": 59.3341880576372}, {"StopAreaNumber": 12409, "StopAreaName": "Svartviksv\u00e4gen", "lon": 17.9901100116638, "lat": 59.335608111886}, {"StopAreaNumber": 12411, "StopAreaName": "Bengt Tranas v\u00e4g", "lon": 17.9911914367069, "lat": 59.3368471377885}, {"StopAreaNumber": 12413, "StopAreaName": "Minneberg", "lon": 17.9898098896961, "lat": 59.3394205168186}, {"StopAreaNumber": 12403, "StopAreaName": "Svartviksslingan", "lon": 17.9860272866488, "lat": 59.3382715855914}, {"StopAreaNumber": 12402, "StopAreaName": "Margretelundsv\u00e4gen", "lon": 17.9832917712062, "lat": 59.3372756726062}, {"StopAreaNumber": 12404, "StopAreaName": "Gesundaplan", "lon": 17.9814160183057, "lat": 59.3381780187094}, {"StopAreaNumber": 12408, "StopAreaName": "Vid\u00e4ngsv\u00e4gen", "lon": 17.9791775691576, "lat": 59.3397329176227}, {"StopAreaNumber": 12405, "StopAreaName": "Kebnekaisev\u00e4gen", "lon": 17.9781999211923, "lat": 59.338186759339}, {"StopAreaNumber": 12025, "StopAreaName": "Alvik", "lon": 17.9806591444593, "lat": 59.332937562085}], "124": [{"StopAreaNumber": 12003, "StopAreaName": "Abrahamsbergsskolan", "lon": 17.9495669221946, "lat": 59.3344269462135}, {"StopAreaNumber": 12005, "StopAreaName": "Gustav III:s v\u00e4g", "lon": 17.9458303852158, "lat": 59.333280599892}, {"StopAreaNumber": 12007, "StopAreaName": "R\u00f6rl\u00e4ggarv\u00e4gen", "lon": 17.9463405935173, "lat": 59.3310542747658}, {"StopAreaNumber": 12009, "StopAreaName": "Abrahamsbergsv\u00e4gen", "lon": 17.9460243635668, "lat": 59.3296586590545}, {"StopAreaNumber": 12011, "StopAreaName": "Grundl\u00e4ggarv\u00e4gen", "lon": 17.9514626391088, "lat": 59.3290933243435}, {"StopAreaNumber": 12013, "StopAreaName": "Ny\u00e4ngsv\u00e4gen", "lon": 17.9558902515859, "lat": 59.3286656623466}, {"StopAreaNumber": 12015, "StopAreaName": "Mossens idrottsplats", "lon": 17.963551934708, "lat": 59.3283908745354}, {"StopAreaNumber": 12017, "StopAreaName": "V\u00e4sterledstorget", "lon": 17.9686299847176, "lat": 59.3288005793709}, {"StopAreaNumber": 12019, "StopAreaName": "All\u00e9parken", "lon": 17.9735571829392, "lat": 59.3289524907322}, {"StopAreaNumber": 12025, "StopAreaName": "Alvik", "lon": 17.9806591444593, "lat": 59.332937562085}, {"StopAreaNumber": 12022, "StopAreaName": "Alviksv\u00e4gen", "lon": 17.9748825449974, "lat": 59.331920351415}, {"StopAreaNumber": 12001, "StopAreaName": "Abrahamsberg", "lon": 17.9527527697785, "lat": 59.3368693293578}], "129": [{"StopAreaNumber": 12219, "StopAreaName": "Riksbyv\u00e4gen", "lon": 17.9458035608432, "lat": 59.3412369086647}, {"StopAreaNumber": 12221, "StopAreaName": "Hemsl\u00f6jdsv\u00e4gen", "lon": 17.9496704753099, "lat": 59.3419276530042}, {"StopAreaNumber": 12223, "StopAreaName": "Jetverkst\u00e4derna", "lon": 17.9556693002256, "lat": 59.3435259968764}, {"StopAreaNumber": 12035, "StopAreaName": "Norrbyv\u00e4gen", "lon": 17.9610010571575, "lat": 59.3452697931754}, {"StopAreaNumber": 12037, "StopAreaName": "Ekbacksv\u00e4gen", "lon": 17.9630353483654, "lat": 59.3468524706325}, {"StopAreaNumber": 12039, "StopAreaName": "Ranhammarsv\u00e4gen", "lon": 17.9609892635251, "lat": 59.3484128365049}, {"StopAreaNumber": 12041, "StopAreaName": "Lintav\u00e4gen", "lon": 17.9601872086, "lat": 59.3496293537078}, {"StopAreaNumber": 12105, "StopAreaName": "Sm\u00e4ltv\u00e4gen", "lon": 17.9605666987583, "lat": 59.3545079627853}, {"StopAreaNumber": 12107, "StopAreaName": "Karlsbodav\u00e4gen", "lon": 17.9616763123045, "lat": 59.3570308363468}, {"StopAreaNumber": 50242, "StopAreaName": "Sundbybergs torg", "lon": 17.9670403727707, "lat": 59.3611803986948}, {"StopAreaNumber": 50241, "StopAreaName": "Gjuteribacken", "lon": 17.9739155956623, "lat": 59.3592164801391}, {"StopAreaNumber": 50240, "StopAreaName": "Tritonv\u00e4gen", "lon": 17.9754178767996, "lat": 59.3571261874874}, {"StopAreaNumber": 50051, "StopAreaName": "Vretenv\u00e4gen", "lon": 17.977359744898, "lat": 59.3558636578795}, {"StopAreaNumber": 50049, "StopAreaName": "Solnahallen", "lon": 17.9852186169644, "lat": 59.3580223448515}, {"StopAreaNumber": 12506, "StopAreaName": "Solna centrum", "lon": 17.9975546587632, "lat": 59.3586776301185}, {"StopAreaNumber": 12557, "StopAreaName": "L\u00f6fstr\u00f6ms all\u00e9", "lon": 17.964594628584, "lat": 59.3611670312708}, {"StopAreaNumber": 12217, "StopAreaName": "Brommaplan", "lon": 17.9376429933797, "lat": 59.3383909167765}], "13": [{"StopAreaNumber": 2771, "StopAreaName": "Hallunda", "lon": 17.825251011644, "lat": 59.2433286602697}, {"StopAreaNumber": 2761, "StopAreaName": "Alby", "lon": 17.8453571288648, "lat": 59.2394951549259}, {"StopAreaNumber": 2751, "StopAreaName": "Fittja", "lon": 17.86096737945, "lat": 59.2474656887966}, {"StopAreaNumber": 2741, "StopAreaName": "Masmo", "lon": 17.8813629948844, "lat": 59.2499076571851}, {"StopAreaNumber": 2731, "StopAreaName": "V\u00e5rby g\u00e5rd", "lon": 17.8846802801067, "lat": 59.2643655192883}, {"StopAreaNumber": 2721, "StopAreaName": "V\u00e5rberg", "lon": 17.8901750452765, "lat": 59.275932992746}, {"StopAreaNumber": 2711, "StopAreaName": "Sk\u00e4rholmen", "lon": 17.907021368482, "lat": 59.2771258687665}, {"StopAreaNumber": 2701, "StopAreaName": "S\u00e4tra", "lon": 17.9213353061581, "lat": 59.2849936218002}, {"StopAreaNumber": 2651, "StopAreaName": "Bred\u00e4ng", "lon": 17.936023028775, "lat": 59.2948023132123}, {"StopAreaNumber": 2641, "StopAreaName": "M\u00e4larh\u00f6jden", "lon": 17.9577055987268, "lat": 59.301234465089}, {"StopAreaNumber": 2631, "StopAreaName": "Axelsberg", "lon": 17.9755166918665, "lat": 59.3043782131105}, {"StopAreaNumber": 2621, "StopAreaName": "\u00d6rnsberg", "lon": 17.9891225410984, "lat": 59.3054259984749}, {"StopAreaNumber": 2611, "StopAreaName": "Aspudden", "lon": 18.0018089133442, "lat": 59.306362158044}, {"StopAreaNumber": 2601, "StopAreaName": "Liljeholmen", "lon": 18.0230258294238, "lat": 59.3107261327878}, {"StopAreaNumber": 2531, "StopAreaName": "Hornstull", "lon": 18.0354688493771, "lat": 59.3159465596068}, {"StopAreaNumber": 2521, "StopAreaName": "Zinkensdamm", "lon": 18.049690409772, "lat": 59.3177049161631}, {"StopAreaNumber": 2511, "StopAreaName": "Mariatorget", "lon": 18.0621173620111, "lat": 59.317014373907}, {"StopAreaNumber": 1011, "StopAreaName": "Slussen", "lon": 18.0723513262042, "lat": 59.3195397018325}, {"StopAreaNumber": 1021, "StopAreaName": "Gamla stan", "lon": 18.0671716553256, "lat": 59.3232867666381}, {"StopAreaNumber": 2101, "StopAreaName": "\u00d6stermalmstorg", "lon": 18.0766172928954, "lat": 59.3347672182432}, {"StopAreaNumber": 2111, "StopAreaName": "Karlaplan", "lon": 18.0914363633023, "lat": 59.3392496000513}, {"StopAreaNumber": 2121, "StopAreaName": "G\u00e4rdet", "lon": 18.0987658885549, "lat": 59.3452362308883}, {"StopAreaNumber": 2131, "StopAreaName": "Ropsten", "lon": 18.1027205119011, "lat": 59.3574512178999}, {"StopAreaNumber": 2781, "StopAreaName": "Norsborg", "lon": 17.8150153410671, "lat": 59.243783424692}, {"StopAreaNumber": 1051, "StopAreaName": "T-Centralen", "lon": 18.0616942408464, "lat": 59.3316604098912}], "14": [{"StopAreaNumber": 2251, "StopAreaName": "Danderyds sjukhus", "lon": 18.0417973966184, "lat": 59.3906173258836}, {"StopAreaNumber": 2241, "StopAreaName": "Bergshamra", "lon": 18.0374854981997, "lat": 59.3807281247582}, {"StopAreaNumber": 2231, "StopAreaName": "Universitetet", "lon": 18.0546991325457, "lat": 59.3653284730614}, {"StopAreaNumber": 2221, "StopAreaName": "Tekniska h\u00f6gskolan", "lon": 18.0689241757431, "lat": 59.3462067060803}, {"StopAreaNumber": 2211, "StopAreaName": "Stadion", "lon": 18.0819424478016, "lat": 59.3408031310249}, {"StopAreaNumber": 2101, "StopAreaName": "\u00d6stermalmstorg", "lon": 18.0766172928954, "lat": 59.3347672182432}, {"StopAreaNumber": 1021, "StopAreaName": "Gamla stan", "lon": 18.0671716553256, "lat": 59.3232867666381}, {"StopAreaNumber": 1011, "StopAreaName": "Slussen", "lon": 18.0723513262042, "lat": 59.3195397018325}, {"StopAreaNumber": 2511, "StopAreaName": "Mariatorget", "lon": 18.0621173620111, "lat": 59.317014373907}, {"StopAreaNumber": 2521, "StopAreaName": "Zinkensdamm", "lon": 18.049690409772, "lat": 59.3177049161631}, {"StopAreaNumber": 2531, "StopAreaName": "Hornstull", "lon": 18.0354688493771, "lat": 59.3159465596068}, {"StopAreaNumber": 2601, "StopAreaName": "Liljeholmen", "lon": 18.0230258294238, "lat": 59.3107261327878}, {"StopAreaNumber": 2811, "StopAreaName": "Midsommarkransen", "lon": 18.011932966923, "lat": 59.3018897910988}, {"StopAreaNumber": 2821, "StopAreaName": "Telefonplan", "lon": 17.9973508677179, "lat": 59.2982118063956}, {"StopAreaNumber": 2831, "StopAreaName": "H\u00e4gerstens\u00e5sen", "lon": 17.9783910929665, "lat": 59.2952069581308}, {"StopAreaNumber": 2841, "StopAreaName": "V\u00e4stertorp", "lon": 17.966709732629, "lat": 59.2913559599738}, {"StopAreaNumber": 2851, "StopAreaName": "Fru\u00e4ngen", "lon": 17.964952531908, "lat": 59.2863385427317}, {"StopAreaNumber": 1051, "StopAreaName": "T-Centralen", "lon": 18.0616942408464, "lat": 59.3316604098912}, {"StopAreaNumber": 2301, "StopAreaName": "M\u00f6rby centrum", "lon": 18.0364118186461, "lat": 59.3984096242617}, {"StopAreaNumber": 2611, "StopAreaName": "Aspudden", "lon": 18.0018089133442, "lat": 59.306362158044}, {"StopAreaNumber": 2621, "StopAreaName": "\u00d6rnsberg", "lon": 17.9891225410984, "lat": 59.3054259984749}], "17": [{"StopAreaNumber": 1941, "StopAreaName": "Bagarmossen", "lon": 18.1321880029882, "lat": 59.276835224087}, {"StopAreaNumber": 1931, "StopAreaName": "K\u00e4rrtorp", "lon": 18.1144855338743, "lat": 59.2845095429424}, {"StopAreaNumber": 1921, "StopAreaName": "Bj\u00f6rkhagen", "lon": 18.1153821163545, "lat": 59.2916552629395}, {"StopAreaNumber": 1911, "StopAreaName": "Hammarbyh\u00f6jden", "lon": 18.1045579443827, "lat": 59.2947473393707}, {"StopAreaNumber": 1601, "StopAreaName": "Sk\u00e4rmarbrink", "lon": 18.0903463972156, "lat": 59.2952668128647}, {"StopAreaNumber": 1551, "StopAreaName": "Gullmarsplan", "lon": 18.0809849924398, "lat": 59.2991484001541}, {"StopAreaNumber": 1521, "StopAreaName": "Skanstull", "lon": 18.0761031200138, "lat": 59.3084991070459}, {"StopAreaNumber": 1511, "StopAreaName": "Medborgarplatsen", "lon": 18.0734366729059, "lat": 59.3148795292811}, {"StopAreaNumber": 1011, "StopAreaName": "Slussen", "lon": 18.0723513262042, "lat": 59.3195397018325}, {"StopAreaNumber": 1021, "StopAreaName": "Gamla stan", "lon": 18.0671716553256, "lat": 59.3232867666381}, {"StopAreaNumber": 1051, "StopAreaName": "T-Centralen", "lon": 18.0616942408464, "lat": 59.3316604098912}, {"StopAreaNumber": 1111, "StopAreaName": "H\u00f6torget", "lon": 18.0629638827164, "lat": 59.335610526313}, {"StopAreaNumber": 1121, "StopAreaName": "R\u00e5dmansgatan", "lon": 18.0578988318301, "lat": 59.3408750311772}, {"StopAreaNumber": 1131, "StopAreaName": "Odenplan", "lon": 18.0486533376618, "lat": 59.3427585650663}, {"StopAreaNumber": 1141, "StopAreaName": "S:t Eriksplan", "lon": 18.0374158487966, "lat": 59.3402889178192}, {"StopAreaNumber": 1151, "StopAreaName": "Fridhemsplan", "lon": 18.031315428395, "lat": 59.3330253037509}, {"StopAreaNumber": 1161, "StopAreaName": "Thorildsplan", "lon": 18.015857700615, "lat": 59.3315283051094}, {"StopAreaNumber": 1171, "StopAreaName": "Kristineberg", "lon": 18.0030969716612, "lat": 59.3327228542205}, {"StopAreaNumber": 1201, "StopAreaName": "Alvik", "lon": 17.9813032490971, "lat": 59.3335284485486}, {"StopAreaNumber": 1211, "StopAreaName": "Stora mossen", "lon": 17.9653473382737, "lat": 59.3346693037612}, {"StopAreaNumber": 1221, "StopAreaName": "Abrahamsberg", "lon": 17.9531728536484, "lat": 59.3365630909855}, {"StopAreaNumber": 1231, "StopAreaName": "Brommaplan", "lon": 17.9396416118668, "lat": 59.3382848826814}, {"StopAreaNumber": 1241, "StopAreaName": "\u00c5keshov", "lon": 17.9270280550948, "lat": 59.3417772408432}, {"StopAreaNumber": 1251, "StopAreaName": "\u00c4ngbyplan", "lon": 17.907101907004, "lat": 59.3419113801677}, {"StopAreaNumber": 1261, "StopAreaName": "Islandstorget", "lon": 17.8932367172638, "lat": 59.3459952637451}, {"StopAreaNumber": 1271, "StopAreaName": "Blackeberg", "lon": 17.8828507976387, "lat": 59.3483700573948}, {"StopAreaNumber": 1281, "StopAreaName": "R\u00e5cksta", "lon": 17.8818712481824, "lat": 59.3545005898112}, {"StopAreaNumber": 1301, "StopAreaName": "V\u00e4llingby", "lon": 17.8720668566708, "lat": 59.3632427777133}, {"StopAreaNumber": 1311, "StopAreaName": "Johannelund", "lon": 17.8581414133363, "lat": 59.3679231026945}, {"StopAreaNumber": 1321, "StopAreaName": "H\u00e4sselby g\u00e5rd", "lon": 17.8443080370235, "lat": 59.3670894647196}, {"StopAreaNumber": 1331, "StopAreaName": "H\u00e4sselby strand", "lon": 17.8324667161437, "lat": 59.3617428105017}, {"StopAreaNumber": 1951, "StopAreaName": "Skarpn\u00e4ck", "lon": 18.1336274416113, "lat": 59.2669701506194}], "176": [{"StopAreaNumber": 15815, "StopAreaName": "F\u00e5rhagen", "lon": 17.6925530581242, "lat": 59.3393425747128}, {"StopAreaNumber": 15813, "StopAreaName": "F\u00e5rhagsplan", "lon": 17.6886549462476, "lat": 59.3361715137077}, {"StopAreaNumber": 15811, "StopAreaName": "Stenhamra centrum", "lon": 17.6868973423863, "lat": 59.3350565722801}, {"StopAreaNumber": 15809, "StopAreaName": "Ekn\u00e4s", "lon": 17.6993205733209, "lat": 59.3313929070268}, {"StopAreaNumber": 15807, "StopAreaName": "V\u00e4ster\u00e4ng", "lon": 17.7098144709588, "lat": 59.3286226934439}, {"StopAreaNumber": 15805, "StopAreaName": "Rosenborg", "lon": 17.7137765358528, "lat": 59.3253278524313}, {"StopAreaNumber": 15803, "StopAreaName": "T\u00f6rnby", "lon": 17.7280948569836, "lat": 59.3262488109836}, {"StopAreaNumber": 15672, "StopAreaName": "Svanhagen", "lon": 17.7478687635425, "lat": 59.3245369867961}, {"StopAreaNumber": 15713, "StopAreaName": "Ekeberga", "lon": 17.7534637995696, "lat": 59.3231425560876}, {"StopAreaNumber": 15711, "StopAreaName": "M\u00f6rbyv\u00e4gen", "lon": 17.7634527171614, "lat": 59.3214844126877}, {"StopAreaNumber": 15709, "StopAreaName": "Troxhammar", "lon": 17.7715573558529, "lat": 59.3151982718528}, {"StopAreaNumber": 15707, "StopAreaName": "Hammarg\u00e5rden", "lon": 17.7760806121331, "lat": 59.3086784679039}, {"StopAreaNumber": 15705, "StopAreaName": "Lullehov", "lon": 17.7873806978002, "lat": 59.3024820881949}, {"StopAreaNumber": 15703, "StopAreaName": "Betlehem", "lon": 17.8098665736178, "lat": 59.3002928881088}, {"StopAreaNumber": 15323, "StopAreaName": "Tappstr\u00f6m", "lon": 17.8090454564602, "lat": 59.2914026271972}, {"StopAreaNumber": 15327, "StopAreaName": "Ekv\u00e4gen", "lon": 17.8021267594804, "lat": 59.2871539426827}, {"StopAreaNumber": 15325, "StopAreaName": "Ekebyhov", "lon": 17.8065155304074, "lat": 59.2892685444691}, {"StopAreaNumber": 15317, "StopAreaName": "Lind\u00f6 lada", "lon": 17.8451827755881, "lat": 59.2964852910054}, {"StopAreaNumber": 15315, "StopAreaName": "Tillflykten", "lon": 17.8548967040517, "lat": 59.3025689847719}, {"StopAreaNumber": 15313, "StopAreaName": "Lov\u00f6 Edeby", "lon": 17.860802682585, "lat": 59.3102430798619}, {"StopAreaNumber": 15311, "StopAreaName": "Kanton", "lon": 17.8667653322333, "lat": 59.3202596376242}, {"StopAreaNumber": 15307, "StopAreaName": "Drottningholm", "lon": 17.8896223295918, "lat": 59.3237303384507}, {"StopAreaNumber": 15305, "StopAreaName": "Brostugan", "lon": 17.9030557196194, "lat": 59.3258943943027}, {"StopAreaNumber": 15303, "StopAreaName": "Nockeby", "lon": 17.9178762967313, "lat": 59.3293590804558}, {"StopAreaNumber": 12217, "StopAreaName": "Brommaplan", "lon": 17.9376429933797, "lat": 59.3383909167765}, {"StopAreaNumber": 12219, "StopAreaName": "Riksbyv\u00e4gen", "lon": 17.9458035608432, "lat": 59.3412369086647}, {"StopAreaNumber": 12035, "StopAreaName": "Norrbyv\u00e4gen", "lon": 17.9610010571575, "lat": 59.3452697931754}, {"StopAreaNumber": 12157, "StopAreaName": "Voltav\u00e4gen", "lon": 17.9673497042082, "lat": 59.3471258270005}, {"StopAreaNumber": 50233, "StopAreaName": "Solna strand - Huvudstaleden", "lon": 17.9754882049602, "lat": 59.352227030014}, {"StopAreaNumber": 50049, "StopAreaName": "Solnahallen", "lon": 17.9852186169644, "lat": 59.3580223448515}, {"StopAreaNumber": 50195, "StopAreaName": "Solna centrum norra", "lon": 17.9997719467252, "lat": 59.3616934282553}, {"StopAreaNumber": 50146, "StopAreaName": "Solna station", "lon": 18.0118675176297, "lat": 59.3643089945931}, {"StopAreaNumber": 50148, "StopAreaName": "Kolonnv\u00e4gen", "lon": 18.0177874835538, "lat": 59.3639123875679}, {"StopAreaNumber": 50012, "StopAreaName": "Fr\u00f6sunda", "lon": 18.0199037950704, "lat": 59.371194939176}, {"StopAreaNumber": 50013, "StopAreaName": "J\u00e4rva krog", "lon": 18.0136077961766, "lat": 59.3783686759124}, {"StopAreaNumber": 50388, "StopAreaName": "Bergshamra bro", "lon": 18.0327943831298, "lat": 59.3800450149195}, {"StopAreaNumber": 50366, "StopAreaName": "Danderyds sjukhus", "lon": 18.0426414804486, "lat": 59.3900685628943}, {"StopAreaNumber": 60314, "StopAreaName": "M\u00f6rby station", "lon": 18.0468634185868, "lat": 59.3924206505786}, {"StopAreaNumber": 15309, "StopAreaName": "Orangeriet", "lon": 17.8777951722976, "lat": 59.3265678288516}, {"StopAreaNumber": 15319, "StopAreaName": "Malmvik", "lon": 17.8247069576479, "lat": 59.2932619480926}, {"StopAreaNumber": 15321, "StopAreaName": "F\u00e4rentunav\u00e4gen", "lon": 17.8138260110347, "lat": 59.2939928499526}, {"StopAreaNumber": 15818, "StopAreaName": "Solbacka", "lon": 17.6956726312499, "lat": 59.3408557075791}], "177": [{"StopAreaNumber": 15501, "StopAreaName": "Hagen", "lon": 17.8060611144942, "lat": 59.2713529909151}, {"StopAreaNumber": 15341, "StopAreaName": "Lundhagen", "lon": 17.7994394198631, "lat": 59.27211003764}, {"StopAreaNumber": 15337, "StopAreaName": "Sandviksv\u00e4gen", "lon": 17.7929832882885, "lat": 59.2727025920795}, {"StopAreaNumber": 15335, "StopAreaName": "Caf\u00e9v\u00e4gen", "lon": 17.7887034473133, "lat": 59.2733155734762}, {"StopAreaNumber": 15333, "StopAreaName": "Tr\u00e4kvista", "lon": 17.7847234745667, "lat": 59.2757735656129}, {"StopAreaNumber": 15331, "StopAreaName": "Tr\u00e4kvista idrottsplats", "lon": 17.7901700983879, "lat": 59.2798300779596}, {"StopAreaNumber": 15329, "StopAreaName": "N\u00e4rlundav\u00e4gen", "lon": 17.7923631589648, "lat": 59.2846454007441}, {"StopAreaNumber": 15327, "StopAreaName": "Ekv\u00e4gen", "lon": 17.8021267594804, "lat": 59.2871539426827}, {"StopAreaNumber": 15325, "StopAreaName": "Ekebyhov", "lon": 17.8065155304074, "lat": 59.2892685444691}, {"StopAreaNumber": 15323, "StopAreaName": "Tappstr\u00f6m", "lon": 17.8090454564602, "lat": 59.2914026271972}, {"StopAreaNumber": 15317, "StopAreaName": "Lind\u00f6 lada", "lon": 17.8451827755881, "lat": 59.2964852910054}, {"StopAreaNumber": 15315, "StopAreaName": "Tillflykten", "lon": 17.8548967040517, "lat": 59.3025689847719}, {"StopAreaNumber": 15313, "StopAreaName": "Lov\u00f6 Edeby", "lon": 17.860802682585, "lat": 59.3102430798619}, {"StopAreaNumber": 15311, "StopAreaName": "Kanton", "lon": 17.8667653322333, "lat": 59.3202596376242}, {"StopAreaNumber": 15307, "StopAreaName": "Drottningholm", "lon": 17.8896223295918, "lat": 59.3237303384507}, {"StopAreaNumber": 15305, "StopAreaName": "Brostugan", "lon": 17.9030557196194, "lat": 59.3258943943027}, {"StopAreaNumber": 15303, "StopAreaName": "Nockeby", "lon": 17.9178762967313, "lat": 59.3293590804558}, {"StopAreaNumber": 12217, "StopAreaName": "Brommaplan", "lon": 17.9376429933797, "lat": 59.3383909167765}, {"StopAreaNumber": 12219, "StopAreaName": "Riksbyv\u00e4gen", "lon": 17.9458035608432, "lat": 59.3412369086647}, {"StopAreaNumber": 12035, "StopAreaName": "Norrbyv\u00e4gen", "lon": 17.9610010571575, "lat": 59.3452697931754}, {"StopAreaNumber": 12157, "StopAreaName": "Voltav\u00e4gen", "lon": 17.9673497042082, "lat": 59.3471258270005}, {"StopAreaNumber": 50233, "StopAreaName": "Solna strand - Huvudstaleden", "lon": 17.9754882049602, "lat": 59.352227030014}, {"StopAreaNumber": 50049, "StopAreaName": "Solnahallen", "lon": 17.9852186169644, "lat": 59.3580223448515}, {"StopAreaNumber": 50195, "StopAreaName": "Solna centrum norra", "lon": 17.9997719467252, "lat": 59.3616934282553}, {"StopAreaNumber": 50146, "StopAreaName": "Solna station", "lon": 18.0118675176297, "lat": 59.3643089945931}, {"StopAreaNumber": 50148, "StopAreaName": "Kolonnv\u00e4gen", "lon": 18.0177874835538, "lat": 59.3639123875679}, {"StopAreaNumber": 50012, "StopAreaName": "Fr\u00f6sunda", "lon": 18.0199037950704, "lat": 59.371194939176}, {"StopAreaNumber": 50013, "StopAreaName": "J\u00e4rva krog", "lon": 18.0136077961766, "lat": 59.3783686759124}, {"StopAreaNumber": 50388, "StopAreaName": "Bergshamra bro", "lon": 18.0327943831298, "lat": 59.3800450149195}, {"StopAreaNumber": 50366, "StopAreaName": "Danderyds sjukhus", "lon": 18.0426414804486, "lat": 59.3900685628943}, {"StopAreaNumber": 60314, "StopAreaName": "M\u00f6rby station", "lon": 18.0468634185868, "lat": 59.3924206505786}, {"StopAreaNumber": 15309, "StopAreaName": "Orangeriet", "lon": 17.8777951722976, "lat": 59.3265678288516}, {"StopAreaNumber": 15319, "StopAreaName": "Malmvik", "lon": 17.8247069576479, "lat": 59.2932619480926}, {"StopAreaNumber": 15321, "StopAreaName": "F\u00e4rentunav\u00e4gen", "lon": 17.8138260110347, "lat": 59.2939928499526}, {"StopAreaNumber": 15503, "StopAreaName": "Sk\u00e4rvik", "lon": 17.8127924128604, "lat": 59.2706747280406}], "18": [{"StopAreaNumber": 1871, "StopAreaName": "Farsta", "lon": 18.0926118731844, "lat": 59.2447771837355}, {"StopAreaNumber": 1861, "StopAreaName": "H\u00f6kar\u00e4ngen", "lon": 18.0825062565998, "lat": 59.2579260642402}, {"StopAreaNumber": 1851, "StopAreaName": "Gubb\u00e4ngen", "lon": 18.0821386289724, "lat": 59.2633249972723}, {"StopAreaNumber": 1841, "StopAreaName": "Tallkrogen", "lon": 18.0855276222452, "lat": 59.2712579023624}, {"StopAreaNumber": 1831, "StopAreaName": "Skogskyrkog\u00e5rden", "lon": 18.0954485370149, "lat": 59.2789682595566}, {"StopAreaNumber": 1821, "StopAreaName": "Sandsborg", "lon": 18.0919681772846, "lat": 59.2856836180898}, {"StopAreaNumber": 1811, "StopAreaName": "Bl\u00e5sut", "lon": 18.0913696689207, "lat": 59.2911539743788}, {"StopAreaNumber": 1601, "StopAreaName": "Sk\u00e4rmarbrink", "lon": 18.0903463972156, "lat": 59.2952668128647}, {"StopAreaNumber": 1551, "StopAreaName": "Gullmarsplan", "lon": 18.0809849924398, "lat": 59.2991484001541}, {"StopAreaNumber": 1521, "StopAreaName": "Skanstull", "lon": 18.0761031200138, "lat": 59.3084991070459}, {"StopAreaNumber": 1511, "StopAreaName": "Medborgarplatsen", "lon": 18.0734366729059, "lat": 59.3148795292811}, {"StopAreaNumber": 1011, "StopAreaName": "Slussen", "lon": 18.0723513262042, "lat": 59.3195397018325}, {"StopAreaNumber": 1021, "StopAreaName": "Gamla stan", "lon": 18.0671716553256, "lat": 59.3232867666381}, {"StopAreaNumber": 1051, "StopAreaName": "T-Centralen", "lon": 18.0616942408464, "lat": 59.3316604098912}, {"StopAreaNumber": 1111, "StopAreaName": "H\u00f6torget", "lon": 18.0629638827164, "lat": 59.335610526313}, {"StopAreaNumber": 1121, "StopAreaName": "R\u00e5dmansgatan", "lon": 18.0578988318301, "lat": 59.3408750311772}, {"StopAreaNumber": 1131, "StopAreaName": "Odenplan", "lon": 18.0486533376618, "lat": 59.3427585650663}, {"StopAreaNumber": 1141, "StopAreaName": "S:t Eriksplan", "lon": 18.0374158487966, "lat": 59.3402889178192}, {"StopAreaNumber": 1151, "StopAreaName": "Fridhemsplan", "lon": 18.031315428395, "lat": 59.3330253037509}, {"StopAreaNumber": 1161, "StopAreaName": "Thorildsplan", "lon": 18.015857700615, "lat": 59.3315283051094}, {"StopAreaNumber": 1171, "StopAreaName": "Kristineberg", "lon": 18.0030969716612, "lat": 59.3327228542205}, {"StopAreaNumber": 1201, "StopAreaName": "Alvik", "lon": 17.9813032490971, "lat": 59.3335284485486}, {"StopAreaNumber": 1211, "StopAreaName": "Stora mossen", "lon": 17.9653473382737, "lat": 59.3346693037612}, {"StopAreaNumber": 1221, "StopAreaName": "Abrahamsberg", "lon": 17.9531728536484, "lat": 59.3365630909855}, {"StopAreaNumber": 1231, "StopAreaName": "Brommaplan", "lon": 17.9396416118668, "lat": 59.3382848826814}, {"StopAreaNumber": 1241, "StopAreaName": "\u00c5keshov", "lon": 17.9270280550948, "lat": 59.3417772408432}, {"StopAreaNumber": 1251, "StopAreaName": "\u00c4ngbyplan", "lon": 17.907101907004, "lat": 59.3419113801677}, {"StopAreaNumber": 1261, "StopAreaName": "Islandstorget", "lon": 17.8932367172638, "lat": 59.3459952637451}, {"StopAreaNumber": 1271, "StopAreaName": "Blackeberg", "lon": 17.8828507976387, "lat": 59.3483700573948}, {"StopAreaNumber": 1281, "StopAreaName": "R\u00e5cksta", "lon": 17.8818712481824, "lat": 59.3545005898112}, {"StopAreaNumber": 1301, "StopAreaName": "V\u00e4llingby", "lon": 17.8720668566708, "lat": 59.3632427777133}, {"StopAreaNumber": 1311, "StopAreaName": "Johannelund", "lon": 17.8581414133363, "lat": 59.3679231026945}, {"StopAreaNumber": 1321, "StopAreaName": "H\u00e4sselby g\u00e5rd", "lon": 17.8443080370235, "lat": 59.3670894647196}, {"StopAreaNumber": 1331, "StopAreaName": "H\u00e4sselby strand", "lon": 17.8324667161437, "lat": 59.3617428105017}, {"StopAreaNumber": 1881, "StopAreaName": "Farsta strand", "lon": 18.1012172595885, "lat": 59.2354536133545}], "19": [{"StopAreaNumber": 1711, "StopAreaName": "R\u00e5gsved", "lon": 18.0283615231472, "lat": 59.2566978344161}, {"StopAreaNumber": 1701, "StopAreaName": "H\u00f6gdalen", "lon": 18.0429863820286, "lat": 59.2637883240577}, {"StopAreaNumber": 1661, "StopAreaName": "Bandhagen", "lon": 18.0496476704093, "lat": 59.2703996172475}, {"StopAreaNumber": 1651, "StopAreaName": "Stureby", "lon": 18.0556435212321, "lat": 59.2745975139201}, {"StopAreaNumber": 1641, "StopAreaName": "Svedmyra", "lon": 18.0679497698099, "lat": 59.2780121614268}, {"StopAreaNumber": 1631, "StopAreaName": "Sockenplan", "lon": 18.0709786528666, "lat": 59.283589935804}, {"StopAreaNumber": 1621, "StopAreaName": "Enskede g\u00e5rd", "lon": 18.0705345923768, "lat": 59.2890574734087}, {"StopAreaNumber": 1611, "StopAreaName": "Globen", "lon": 18.0780157228567, "lat": 59.2942477835138}, {"StopAreaNumber": 1551, "StopAreaName": "Gullmarsplan", "lon": 18.0809849924398, "lat": 59.2991484001541}, {"StopAreaNumber": 1521, "StopAreaName": "Skanstull", "lon": 18.0761031200138, "lat": 59.3084991070459}, {"StopAreaNumber": 1511, "StopAreaName": "Medborgarplatsen", "lon": 18.0734366729059, "lat": 59.3148795292811}, {"StopAreaNumber": 1011, "StopAreaName": "Slussen", "lon": 18.0723513262042, "lat": 59.3195397018325}, {"StopAreaNumber": 1021, "StopAreaName": "Gamla stan", "lon": 18.0671716553256, "lat": 59.3232867666381}, {"StopAreaNumber": 1051, "StopAreaName": "T-Centralen", "lon": 18.0616942408464, "lat": 59.3316604098912}, {"StopAreaNumber": 1111, "StopAreaName": "H\u00f6torget", "lon": 18.0629638827164, "lat": 59.335610526313}, {"StopAreaNumber": 1121, "StopAreaName": "R\u00e5dmansgatan", "lon": 18.0578988318301, "lat": 59.3408750311772}, {"StopAreaNumber": 1131, "StopAreaName": "Odenplan", "lon": 18.0486533376618, "lat": 59.3427585650663}, {"StopAreaNumber": 1141, "StopAreaName": "S:t Eriksplan", "lon": 18.0374158487966, "lat": 59.3402889178192}, {"StopAreaNumber": 1151, "StopAreaName": "Fridhemsplan", "lon": 18.031315428395, "lat": 59.3330253037509}, {"StopAreaNumber": 1161, "StopAreaName": "Thorildsplan", "lon": 18.015857700615, "lat": 59.3315283051094}, {"StopAreaNumber": 1171, "StopAreaName": "Kristineberg", "lon": 18.0030969716612, "lat": 59.3327228542205}, {"StopAreaNumber": 1201, "StopAreaName": "Alvik", "lon": 17.9813032490971, "lat": 59.3335284485486}, {"StopAreaNumber": 1211, "StopAreaName": "Stora mossen", "lon": 17.9653473382737, "lat": 59.3346693037612}, {"StopAreaNumber": 1221, "StopAreaName": "Abrahamsberg", "lon": 17.9531728536484, "lat": 59.3365630909855}, {"StopAreaNumber": 1231, "StopAreaName": "Brommaplan", "lon": 17.9396416118668, "lat": 59.3382848826814}, {"StopAreaNumber": 1241, "StopAreaName": "\u00c5keshov", "lon": 17.9270280550948, "lat": 59.3417772408432}, {"StopAreaNumber": 1251, "StopAreaName": "\u00c4ngbyplan", "lon": 17.907101907004, "lat": 59.3419113801677}, {"StopAreaNumber": 1261, "StopAreaName": "Islandstorget", "lon": 17.8932367172638, "lat": 59.3459952637451}, {"StopAreaNumber": 1271, "StopAreaName": "Blackeberg", "lon": 17.8828507976387, "lat": 59.3483700573948}, {"StopAreaNumber": 1281, "StopAreaName": "R\u00e5cksta", "lon": 17.8818712481824, "lat": 59.3545005898112}, {"StopAreaNumber": 1301, "StopAreaName": "V\u00e4llingby", "lon": 17.8720668566708, "lat": 59.3632427777133}, {"StopAreaNumber": 1311, "StopAreaName": "Johannelund", "lon": 17.8581414133363, "lat": 59.3679231026945}, {"StopAreaNumber": 1321, "StopAreaName": "H\u00e4sselby g\u00e5rd", "lon": 17.8443080370235, "lat": 59.3670894647196}, {"StopAreaNumber": 1331, "StopAreaName": "H\u00e4sselby strand", "lon": 17.8324667161437, "lat": 59.3617428105017}, {"StopAreaNumber": 1721, "StopAreaName": "Hags\u00e4tra", "lon": 18.0132513820533, "lat": 59.2619343131702}], "2": [{"StopAreaNumber": 10227, "StopAreaName": "Ynglingagatan", "lon": 18.0456176500854, "lat": 59.348984381076}, {"StopAreaNumber": 10226, "StopAreaName": "Norrtullsgatan", "lon": 18.0464010473726, "lat": 59.3467304567492}, {"StopAreaNumber": 10231, "StopAreaName": "Vanadisv\u00e4gen", "lon": 18.0452998960511, "lat": 59.3457615982789}, {"StopAreaNumber": 10230, "StopAreaName": "Frejgatan", "lon": 18.0469170857467, "lat": 59.3444227536105}, {"StopAreaNumber": 10151, "StopAreaName": "Odenplan", "lon": 18.049101216406, "lat": 59.3428855557011}, {"StopAreaNumber": 10188, "StopAreaName": "Stadsbiblioteket", "lon": 18.0553124202201, "lat": 59.344296112913}, {"StopAreaNumber": 10107, "StopAreaName": "Jarlaplan", "lon": 18.061916772764, "lat": 59.344469335134}, {"StopAreaNumber": 10110, "StopAreaName": "Tegn\u00e9rgatan", "lon": 18.0647021040352, "lat": 59.3415385610728}, {"StopAreaNumber": 10112, "StopAreaName": "Eriksbergsgatan", "lon": 18.0674599991512, "lat": 59.3395241453998}, {"StopAreaNumber": 10031, "StopAreaName": "Stureplan", "lon": 18.073299572224, "lat": 59.3358846094887}, {"StopAreaNumber": 10294, "StopAreaName": "Kungstr\u00e4dg\u00e5rden", "lon": 18.0710898241892, "lat": 59.331998816956}, {"StopAreaNumber": 10120, "StopAreaName": "Karl XII:s torg", "lon": 18.0735110824761, "lat": 59.3298284702156}, {"StopAreaNumber": 10122, "StopAreaName": "Slottsbacken", "lon": 18.0737769570679, "lat": 59.3266994570614}, {"StopAreaNumber": 11002, "StopAreaName": "Slussen", "lon": 18.0721576068741, "lat": 59.3195002550837}, {"StopAreaNumber": 10250, "StopAreaName": "Tj\u00e4rhovsplan", "lon": 18.0833729495817, "lat": 59.3164829041334}, {"StopAreaNumber": 10254, "StopAreaName": "Ersta sjukhus", "lon": 18.0899482270385, "lat": 59.3155146973987}, {"StopAreaNumber": 10255, "StopAreaName": "Erstagatan", "lon": 18.0900885576148, "lat": 59.3139407404132}, {"StopAreaNumber": 10256, "StopAreaName": "Sofiaskolan", "lon": 18.0941911492768, "lat": 59.3133030033605}, {"StopAreaNumber": 10976, "StopAreaName": "Mandelparken", "lon": 18.0987081147049, "lat": 59.3115173816184}, {"StopAreaNumber": 10881, "StopAreaName": "Barn\u00e4ngen", "lon": 18.0973212518012, "lat": 59.3097008822364}, {"StopAreaNumber": 10191, "StopAreaName": "Roslagsgatan", "lon": 18.0606154102722, "lat": 59.3455245346987}, {"StopAreaNumber": 10225, "StopAreaName": "Sveaplan", "lon": 18.0501836392889, "lat": 59.3494311762383}, {"StopAreaNumber": 10102, "StopAreaName": "Norrmalmstorg", "lon": 18.072937706156, "lat": 59.3332238721331}], "201": [{"StopAreaNumber": 20021, "StopAreaName": "Torsvikstorg", "lon": 18.1238955499888, "lat": 59.3638833413106}, {"StopAreaNumber": 20031, "StopAreaName": "Sturev\u00e4gen", "lon": 18.1301134326335, "lat": 59.3654160102139}, {"StopAreaNumber": 20041, "StopAreaName": "Liding\u00f6 centrum", "lon": 18.1328254322359, "lat": 59.3650713029675}, {"StopAreaNumber": 20051, "StopAreaName": "Sagav\u00e4gen", "lon": 18.14006591251, "lat": 59.3648341385396}, {"StopAreaNumber": 20061, "StopAreaName": "Riddarv\u00e4gen", "lon": 18.1447881932601, "lat": 59.3631555577081}, {"StopAreaNumber": 20071, "StopAreaName": "Hersby gymnasium", "lon": 18.151474539656, "lat": 59.3627974805438}, {"StopAreaNumber": 20081, "StopAreaName": "Hersby \u00e5ker", "lon": 18.1560170890265, "lat": 59.3615841920743}, {"StopAreaNumber": 20091, "StopAreaName": "Hantverkshuset", "lon": 18.1615372391537, "lat": 59.3587456370693}, {"StopAreaNumber": 20101, "StopAreaName": "Folkh\u00f6gskolan", "lon": 18.1659873326334, "lat": 59.3562135763749}, {"StopAreaNumber": 20111, "StopAreaName": "Toppmurklev\u00e4gen", "lon": 18.1658913794353, "lat": 59.3543249884912}, {"StopAreaNumber": 20121, "StopAreaName": "\u00c4ngsklockev\u00e4gen", "lon": 18.1667010264869, "lat": 59.3509158252261}, {"StopAreaNumber": 20131, "StopAreaName": "Kottlasj\u00f6n", "lon": 18.1745614453051, "lat": 59.3480118287717}, {"StopAreaNumber": 20141, "StopAreaName": "Sk\u00e4rs\u00e4tra skola", "lon": 18.176105665226, "lat": 59.3462011889035}, {"StopAreaNumber": 20152, "StopAreaName": "Kottla station", "lon": 18.1798540409145, "lat": 59.3444851066603}, {"StopAreaNumber": 10032, "StopAreaName": "Ropsten", "lon": 18.1030888150745, "lat": 59.3574357494392}, {"StopAreaNumber": 20161, "StopAreaName": "Stockby", "lon": 18.1714813658852, "lat": 59.3568144607838}, {"StopAreaNumber": 20163, "StopAreaName": "B\u00e5tsmansv\u00e4gen", "lon": 18.17164583113, "lat": 59.3601880239465}], "203": [{"StopAreaNumber": 20911, "StopAreaName": "Constantiav\u00e4gen", "lon": 18.1211946335097, "lat": 59.369166673938}, {"StopAreaNumber": 20651, "StopAreaName": "Dal\u00e4ngen", "lon": 18.1284252906701, "lat": 59.3709598290663}, {"StopAreaNumber": 20921, "StopAreaName": "\u00c4girv\u00e4gen", "lon": 18.1348534015868, "lat": 59.3709170349528}, {"StopAreaNumber": 20931, "StopAreaName": "H\u00f6gn\u00e4sv\u00e4gen", "lon": 18.1474664054399, "lat": 59.372280656867}, {"StopAreaNumber": 20941, "StopAreaName": "K\u00e4ll\u00e4ngstorget", "lon": 18.1440066622397, "lat": 59.3732721662565}, {"StopAreaNumber": 20951, "StopAreaName": "N\u00e4set", "lon": 18.1400894748502, "lat": 59.3734994835558}, {"StopAreaNumber": 10032, "StopAreaName": "Ropsten", "lon": 18.1030888150745, "lat": 59.3574357494392}], "204": [{"StopAreaNumber": 20021, "StopAreaName": "Torsvikstorg", "lon": 18.1238955499888, "lat": 59.3638833413106}, {"StopAreaNumber": 20031, "StopAreaName": "Sturev\u00e4gen", "lon": 18.1301134326335, "lat": 59.3654160102139}, {"StopAreaNumber": 20041, "StopAreaName": "Liding\u00f6 centrum", "lon": 18.1328254322359, "lat": 59.3650713029675}, {"StopAreaNumber": 20043, "StopAreaName": "Lejonv\u00e4gen", "lon": 18.1385991203191, "lat": 59.3662747468262}, {"StopAreaNumber": 20211, "StopAreaName": "Hersbyholm", "lon": 18.1459350746591, "lat": 59.3672927636118}, {"StopAreaNumber": 20221, "StopAreaName": "Kvarnen", "lon": 18.1529654824305, "lat": 59.3669374250811}, {"StopAreaNumber": 20231, "StopAreaName": "Liding\u00f6vallen", "lon": 18.155863793815, "lat": 59.3714920282488}, {"StopAreaNumber": 20241, "StopAreaName": "Askrikev\u00e4gen", "lon": 18.1619080906511, "lat": 59.3722136375505}, {"StopAreaNumber": 20251, "StopAreaName": "Grankottev\u00e4gen", "lon": 18.1724892977533, "lat": 59.3735621537635}, {"StopAreaNumber": 20261, "StopAreaName": "Rudboda torg", "lon": 18.176582966672, "lat": 59.3748572824501}, {"StopAreaNumber": 20271, "StopAreaName": "Lojov\u00e4gen", "lon": 18.1800367557234, "lat": 59.3753018377592}, {"StopAreaNumber": 20281, "StopAreaName": "Hembyv\u00e4gen", "lon": 18.1898777606265, "lat": 59.3725988851079}, {"StopAreaNumber": 20291, "StopAreaName": "S\u00f6dergarnsv\u00e4gen", "lon": 18.1970499636656, "lat": 59.3729974148717}, {"StopAreaNumber": 20311, "StopAreaName": "\u00d6stra Yttringe", "lon": 18.2093951616409, "lat": 59.3710238179667}, {"StopAreaNumber": 20321, "StopAreaName": "Oskarsh\u00e4ll", "lon": 18.2130203276005, "lat": 59.3707818389424}, {"StopAreaNumber": 20331, "StopAreaName": "Furutorp (Wijk)", "lon": 18.2208559801761, "lat": 59.3702418371091}, {"StopAreaNumber": 20351, "StopAreaName": "F\u00e5gel\u00f6uddev\u00e4gen", "lon": 18.2251189962863, "lat": 59.3700640387522}, {"StopAreaNumber": 20371, "StopAreaName": "Skogshem", "lon": 18.2313269219287, "lat": 59.3681706149035}, {"StopAreaNumber": 20381, "StopAreaName": "Lovik", "lon": 18.2384856480509, "lat": 59.3671571906864}, {"StopAreaNumber": 20392, "StopAreaName": "Elfvik", "lon": 18.2458872123506, "lat": 59.3667135700521}, {"StopAreaNumber": 10032, "StopAreaName": "Ropsten", "lon": 18.1030888150745, "lat": 59.3574357494392}, {"StopAreaNumber": 20341, "StopAreaName": "Wijk", "lon": 18.2240789317344, "lat": 59.3668234683145}], "205": [{"StopAreaNumber": 20021, "StopAreaName": "Torsvikstorg", "lon": 18.1238955499888, "lat": 59.3638833413106}, {"StopAreaNumber": 20031, "StopAreaName": "Sturev\u00e4gen", "lon": 18.1301134326335, "lat": 59.3654160102139}, {"StopAreaNumber": 20041, "StopAreaName": "Liding\u00f6 centrum", "lon": 18.1328254322359, "lat": 59.3650713029675}, {"StopAreaNumber": 20641, "StopAreaName": "Odenv\u00e4gen", "lon": 18.1337940657967, "lat": 59.3673978086586}, {"StopAreaNumber": 20651, "StopAreaName": "Dal\u00e4ngen", "lon": 18.1284252906701, "lat": 59.3709598290663}, {"StopAreaNumber": 20721, "StopAreaName": "Kalvhagsv\u00e4gen", "lon": 18.1331188265868, "lat": 59.3729505494106}, {"StopAreaNumber": 20661, "StopAreaName": "Bl\u00e5klintsv\u00e4gen", "lon": 18.1293039792844, "lat": 59.3753174532391}, {"StopAreaNumber": 20671, "StopAreaName": "Golfklubben", "lon": 18.1256867665312, "lat": 59.3792971262891}, {"StopAreaNumber": 20673, "StopAreaName": "Friluftsv\u00e4gen", "lon": 18.1200545008001, "lat": 59.3821315809592}, {"StopAreaNumber": 20711, "StopAreaName": "Harrv\u00e4gen", "lon": 18.1174614593901, "lat": 59.3833404650873}, {"StopAreaNumber": 20691, "StopAreaName": "Karpv\u00e4gen", "lon": 18.1108729197249, "lat": 59.3829990705069}, {"StopAreaNumber": 20702, "StopAreaName": "Sticklinge", "lon": 18.1057538691835, "lat": 59.3861605638391}, {"StopAreaNumber": 10032, "StopAreaName": "Ropsten", "lon": 18.1030888150745, "lat": 59.3574357494392}], "206": [{"StopAreaNumber": 20021, "StopAreaName": "Torsvikstorg", "lon": 18.1238955499888, "lat": 59.3638833413106}, {"StopAreaNumber": 20031, "StopAreaName": "Sturev\u00e4gen", "lon": 18.1301134326335, "lat": 59.3654160102139}, {"StopAreaNumber": 20041, "StopAreaName": "Liding\u00f6 centrum", "lon": 18.1328254322359, "lat": 59.3650713029675}, {"StopAreaNumber": 20761, "StopAreaName": "Drottningv\u00e4gen", "lon": 18.1327910788515, "lat": 59.3620007378161}, {"StopAreaNumber": 20771, "StopAreaName": "Baggeby", "lon": 18.138491743303, "lat": 59.3573262005536}, {"StopAreaNumber": 20781, "StopAreaName": "Oskarsv\u00e4gen", "lon": 18.1423127800289, "lat": 59.3582384381356}, {"StopAreaNumber": 20791, "StopAreaName": "Mosstorpsv\u00e4gen", "lon": 18.1508901059293, "lat": 59.3567075018466}, {"StopAreaNumber": 20801, "StopAreaName": "Svalv\u00e4gen", "lon": 18.1491855332644, "lat": 59.3528168328422}, {"StopAreaNumber": 21031, "StopAreaName": "Larsbergsv\u00e4gen", "lon": 18.1421260658903, "lat": 59.348996777542}, {"StopAreaNumber": 21041, "StopAreaName": "Larsberg", "lon": 18.1463540732256, "lat": 59.3464289558076}, {"StopAreaNumber": 21051, "StopAreaName": "Larsbergs station", "lon": 18.1432859829274, "lat": 59.3498829753641}, {"StopAreaNumber": 10032, "StopAreaName": "Ropsten", "lon": 18.1030888150745, "lat": 59.3574357494392}, {"StopAreaNumber": 20812, "StopAreaName": "H\u00f6gs\u00e4tra", "lon": 18.1519339756005, "lat": 59.3511060793406}], "21": [{"StopAreaNumber": 22021, "StopAreaName": "Torsvik", "lon": 18.1181379345338, "lat": 59.3614801401623}, {"StopAreaNumber": 22031, "StopAreaName": "Baggeby", "lon": 18.1331756123326, "lat": 59.3569560618612}, {"StopAreaNumber": 22041, "StopAreaName": "Bodal", "lon": 18.1389363167778, "lat": 59.3531218823149}, {"StopAreaNumber": 22071, "StopAreaName": "Sk\u00e4rs\u00e4tra", "lon": 18.1703366267964, "lat": 59.3433918895267}, {"StopAreaNumber": 22101, "StopAreaName": "H\u00f6gberga", "lon": 18.1932849510337, "lat": 59.3439614114894}, {"StopAreaNumber": 22111, "StopAreaName": "Brevik", "lon": 18.2039039806223, "lat": 59.3484452122395}, {"StopAreaNumber": 22121, "StopAreaName": "K\u00e4ppala", "lon": 18.2174688766186, "lat": 59.3525189938697}, {"StopAreaNumber": 22151, "StopAreaName": "G\u00e5shaga brygga", "lon": 18.2340304765676, "lat": 59.3568858572087}, {"StopAreaNumber": 22142, "StopAreaName": "G\u00e5shaga", "lon": 18.2291019843804, "lat": 59.3568338686019}, {"StopAreaNumber": 22091, "StopAreaName": "Kottla", "lon": 18.1800566140199, "lat": 59.3443646741251}, {"StopAreaNumber": 22061, "StopAreaName": "AGA", "lon": 18.1540332796972, "lat": 59.3468745601102}, {"StopAreaNumber": 22011, "StopAreaName": "Ropsten", "lon": 18.1038806225601, "lat": 59.3584814330411}], "211": [{"StopAreaNumber": 20021, "StopAreaName": "Torsvikstorg", "lon": 18.1238955499888, "lat": 59.3638833413106}, {"StopAreaNumber": 20031, "StopAreaName": "Sturev\u00e4gen", "lon": 18.1301134326335, "lat": 59.3654160102139}, {"StopAreaNumber": 20041, "StopAreaName": "Liding\u00f6 centrum", "lon": 18.1328254322359, "lat": 59.3650713029675}, {"StopAreaNumber": 20043, "StopAreaName": "Lejonv\u00e4gen", "lon": 18.1385991203191, "lat": 59.3662747468262}, {"StopAreaNumber": 20211, "StopAreaName": "Hersbyholm", "lon": 18.1459350746591, "lat": 59.3672927636118}, {"StopAreaNumber": 20221, "StopAreaName": "Kvarnen", "lon": 18.1529654824305, "lat": 59.3669374250811}, {"StopAreaNumber": 20231, "StopAreaName": "Liding\u00f6vallen", "lon": 18.155863793815, "lat": 59.3714920282488}, {"StopAreaNumber": 20241, "StopAreaName": "Askrikev\u00e4gen", "lon": 18.1619080906511, "lat": 59.3722136375505}, {"StopAreaNumber": 20251, "StopAreaName": "Grankottev\u00e4gen", "lon": 18.1724892977533, "lat": 59.3735621537635}, {"StopAreaNumber": 20261, "StopAreaName": "Rudboda torg", "lon": 18.176582966672, "lat": 59.3748572824501}, {"StopAreaNumber": 20293, "StopAreaName": "Bos\u00f6v\u00e4gen", "lon": 18.1766966338758, "lat": 59.3797628809143}, {"StopAreaNumber": 20295, "StopAreaName": "Bos\u00f6n", "lon": 18.1837754212136, "lat": 59.3801907953983}, {"StopAreaNumber": 10032, "StopAreaName": "Ropsten", "lon": 18.1030888150745, "lat": 59.3574357494392}], "212": [{"StopAreaNumber": 20021, "StopAreaName": "Torsvikstorg", "lon": 18.1238955499888, "lat": 59.3638833413106}, {"StopAreaNumber": 20031, "StopAreaName": "Sturev\u00e4gen", "lon": 18.1301134326335, "lat": 59.3654160102139}, {"StopAreaNumber": 20041, "StopAreaName": "Liding\u00f6 centrum", "lon": 18.1328254322359, "lat": 59.3650713029675}, {"StopAreaNumber": 20043, "StopAreaName": "Lejonv\u00e4gen", "lon": 18.1385991203191, "lat": 59.3662747468262}, {"StopAreaNumber": 20211, "StopAreaName": "Hersbyholm", "lon": 18.1459350746591, "lat": 59.3672927636118}, {"StopAreaNumber": 20221, "StopAreaName": "Kvarnen", "lon": 18.1529654824305, "lat": 59.3669374250811}, {"StopAreaNumber": 20231, "StopAreaName": "Liding\u00f6vallen", "lon": 18.155863793815, "lat": 59.3714920282488}, {"StopAreaNumber": 20241, "StopAreaName": "Askrikev\u00e4gen", "lon": 18.1619080906511, "lat": 59.3722136375505}, {"StopAreaNumber": 20251, "StopAreaName": "Grankottev\u00e4gen", "lon": 18.1724892977533, "lat": 59.3735621537635}, {"StopAreaNumber": 20261, "StopAreaName": "Rudboda torg", "lon": 18.176582966672, "lat": 59.3748572824501}, {"StopAreaNumber": 20271, "StopAreaName": "Lojov\u00e4gen", "lon": 18.1800367557234, "lat": 59.3753018377592}, {"StopAreaNumber": 20281, "StopAreaName": "Hembyv\u00e4gen", "lon": 18.1898777606265, "lat": 59.3725988851079}, {"StopAreaNumber": 20291, "StopAreaName": "S\u00f6dergarnsv\u00e4gen", "lon": 18.1970499636656, "lat": 59.3729974148717}, {"StopAreaNumber": 20461, "StopAreaName": "V\u00e4stra Yttringe", "lon": 18.1914958750145, "lat": 59.3703332198215}, {"StopAreaNumber": 20471, "StopAreaName": "Hustegaholm", "lon": 18.1817976878423, "lat": 59.3677713075139}, {"StopAreaNumber": 20481, "StopAreaName": "Rudalid", "lon": 18.1788074646922, "lat": 59.3672779618909}, {"StopAreaNumber": 20491, "StopAreaName": "Fredriksberg", "lon": 18.1723854185088, "lat": 59.3685351452284}, {"StopAreaNumber": 20501, "StopAreaName": "Svedjev\u00e4gen", "lon": 18.1722989567114, "lat": 59.3700723230638}, {"StopAreaNumber": 20512, "StopAreaName": "Bj\u00f6rnbo", "lon": 18.1697492247586, "lat": 59.3695887354767}, {"StopAreaNumber": 10032, "StopAreaName": "Ropsten", "lon": 18.1030888150745, "lat": 59.3574357494392}], "221": [{"StopAreaNumber": 20021, "StopAreaName": "Torsvikstorg", "lon": 18.1238955499888, "lat": 59.3638833413106}, {"StopAreaNumber": 20031, "StopAreaName": "Sturev\u00e4gen", "lon": 18.1301134326335, "lat": 59.3654160102139}, {"StopAreaNumber": 20041, "StopAreaName": "Liding\u00f6 centrum", "lon": 18.1328254322359, "lat": 59.3650713029675}, {"StopAreaNumber": 20761, "StopAreaName": "Drottningv\u00e4gen", "lon": 18.1327910788515, "lat": 59.3620007378161}, {"StopAreaNumber": 21001, "StopAreaName": "Baggeby torg", "lon": 18.1345075546216, "lat": 59.3556032301071}, {"StopAreaNumber": 21011, "StopAreaName": "Bodals station", "lon": 18.1375393598809, "lat": 59.3528819616121}, {"StopAreaNumber": 21021, "StopAreaName": "Bodals skola", "lon": 18.1382394640723, "lat": 59.351423645188}, {"StopAreaNumber": 21031, "StopAreaName": "Larsbergsv\u00e4gen", "lon": 18.1421260658903, "lat": 59.348996777542}, {"StopAreaNumber": 21041, "StopAreaName": "Larsberg", "lon": 18.1463540732256, "lat": 59.3464289558076}, {"StopAreaNumber": 21051, "StopAreaName": "Larsbergs station", "lon": 18.1432859829274, "lat": 59.3498829753641}, {"StopAreaNumber": 10032, "StopAreaName": "Ropsten", "lon": 18.1030888150745, "lat": 59.3574357494392}, {"StopAreaNumber": 20812, "StopAreaName": "H\u00f6gs\u00e4tra", "lon": 18.1519339756005, "lat": 59.3511060793406}], "27": [{"StopAreaNumber": 7381, "StopAreaName": "Molnby", "lon": 18.0848583927787, "lat": 59.556972498146}, {"StopAreaNumber": 7371, "StopAreaName": "Ormsta", "lon": 18.0796837497207, "lat": 59.5463497429124}, {"StopAreaNumber": 7361, "StopAreaName": "Vallentuna", "lon": 18.0798427962716, "lat": 59.5337529684875}, {"StopAreaNumber": 6851, "StopAreaName": "B\u00e4llsta", "lon": 18.0717434665921, "lat": 59.5237150273406}, {"StopAreaNumber": 7341, "StopAreaName": "Kragstalund", "lon": 18.0756500928762, "lat": 59.509261815669}, {"StopAreaNumber": 7331, "StopAreaName": "T\u00e4by kyrkby", "lon": 18.065765607754, "lat": 59.4926230257328}, {"StopAreaNumber": 7321, "StopAreaName": "Visinge", "lon": 18.0628897040709, "lat": 59.4610461717973}, {"StopAreaNumber": 7311, "StopAreaName": "Ensta", "lon": 18.0636932752277, "lat": 59.4537856412631}, {"StopAreaNumber": 7301, "StopAreaName": "Tibble", "lon": 18.0631038934975, "lat": 59.44309197239}, {"StopAreaNumber": 7191, "StopAreaName": "Roslags N\u00e4sby", "lon": 18.0573963318502, "lat": 59.4352180180309}, {"StopAreaNumber": 7141, "StopAreaName": "M\u00f6rby", "lon": 18.047453307154, "lat": 59.3923432962333}, {"StopAreaNumber": 6601, "StopAreaName": "Stockholms \u00f6stra", "lon": 18.0700546546578, "lat": 59.3468004454582}, {"StopAreaNumber": 7111, "StopAreaName": "Universitetet", "lon": 18.0509549442227, "lat": 59.365105631995}, {"StopAreaNumber": 7131, "StopAreaName": "Stocksund", "lon": 18.0439158594474, "lat": 59.3850988622932}, {"StopAreaNumber": 6651, "StopAreaName": "Djursholms \u00d6sby", "lon": 18.0588036532179, "lat": 59.3980429113344}, {"StopAreaNumber": 6661, "StopAreaName": "Br\u00e5vallav\u00e4gen", "lon": 18.0604585358811, "lat": 59.4054585753666}, {"StopAreaNumber": 7171, "StopAreaName": "Djursholms Ekeby", "lon": 18.0576581343209, "lat": 59.4128882969491}, {"StopAreaNumber": 7181, "StopAreaName": "Enebyberg", "lon": 18.0512938184827, "lat": 59.4255875339066}, {"StopAreaNumber": 6881, "StopAreaName": "Lindholmen", "lon": 18.1092730151023, "lat": 59.5841578329838}, {"StopAreaNumber": 6901, "StopAreaName": "Ekskogen", "lon": 18.2270020366694, "lat": 59.639030592968}, {"StopAreaNumber": 7401, "StopAreaName": "Fr\u00f6sunda", "lon": 18.1704306142742, "lat": 59.6242406565036}, {"StopAreaNumber": 6911, "StopAreaName": "K\u00e5rsta", "lon": 18.2674817870811, "lat": 59.6567848160238}], "28": [{"StopAreaNumber": 6781, "StopAreaName": "Tunag\u00e5rd", "lon": 18.3074250197449, "lat": 59.4693267267387}, {"StopAreaNumber": 7071, "StopAreaName": "\u00c5kersberga", "lon": 18.2988037620526, "lat": 59.4790197726502}, {"StopAreaNumber": 6761, "StopAreaName": "\u00c5kers Run\u00f6", "lon": 18.268597515424, "lat": 59.4807958831929}, {"StopAreaNumber": 7051, "StopAreaName": "T\u00e4lj\u00f6", "lon": 18.2340286789534, "lat": 59.4725754950468}, {"StopAreaNumber": 6741, "StopAreaName": "Rydbo", "lon": 18.1858612730412, "lat": 59.4654076178376}, {"StopAreaNumber": 7035, "StopAreaName": "Arninge", "lon": 18.1413482597748, "lat": 59.458864255386}, {"StopAreaNumber": 7031, "StopAreaName": "H\u00e4gern\u00e4s", "lon": 18.1252287668504, "lat": 59.4509161542337}, {"StopAreaNumber": 7021, "StopAreaName": "Viggbyholm", "lon": 18.1042654874737, "lat": 59.4491808174194}, {"StopAreaNumber": 7011, "StopAreaName": "Galoppf\u00e4ltet", "lon": 18.0851606757236, "lat": 59.4469043238076}, {"StopAreaNumber": 7001, "StopAreaName": "T\u00e4by centrum", "lon": 18.0746302474444, "lat": 59.4443355916191}, {"StopAreaNumber": 7191, "StopAreaName": "Roslags N\u00e4sby", "lon": 18.0573963318502, "lat": 59.4352180180309}, {"StopAreaNumber": 7181, "StopAreaName": "Enebyberg", "lon": 18.0512938184827, "lat": 59.4255875339066}, {"StopAreaNumber": 7171, "StopAreaName": "Djursholms Ekeby", "lon": 18.0576581343209, "lat": 59.4128882969491}, {"StopAreaNumber": 6661, "StopAreaName": "Br\u00e5vallav\u00e4gen", "lon": 18.0604585358811, "lat": 59.4054585753666}, {"StopAreaNumber": 6651, "StopAreaName": "Djursholms \u00d6sby", "lon": 18.0588036532179, "lat": 59.3980429113344}, {"StopAreaNumber": 7141, "StopAreaName": "M\u00f6rby", "lon": 18.047453307154, "lat": 59.3923432962333}, {"StopAreaNumber": 7111, "StopAreaName": "Universitetet", "lon": 18.0509549442227, "lat": 59.365105631995}, {"StopAreaNumber": 6601, "StopAreaName": "Stockholms \u00f6stra", "lon": 18.0700546546578, "lat": 59.3468004454582}, {"StopAreaNumber": 7092, "StopAreaName": "\u00d6stersk\u00e4r", "lon": 18.3117373473298, "lat": 59.460595859313}, {"StopAreaNumber": 7301, "StopAreaName": "Tibble", "lon": 18.0631038934975, "lat": 59.44309197239}, {"StopAreaNumber": 7321, "StopAreaName": "Visinge", "lon": 18.0628897040709, "lat": 59.4610461717973}, {"StopAreaNumber": 7311, "StopAreaName": "Ensta", "lon": 18.0636932752277, "lat": 59.4537856412631}], "29": [{"StopAreaNumber": 7251, "StopAreaName": "N\u00e4sby all\u00e9", "lon": 18.0856677524879, "lat": 59.4273964886176}, {"StopAreaNumber": 7241, "StopAreaName": "Lah\u00e4ll", "lon": 18.0742669111929, "lat": 59.4242058757612}, {"StopAreaNumber": 6941, "StopAreaName": "Altorp", "lon": 18.0729048508802, "lat": 59.4109382376346}, {"StopAreaNumber": 7221, "StopAreaName": "\u00d6stberga", "lon": 18.0740911979614, "lat": 59.4046745838333}, {"StopAreaNumber": 6921, "StopAreaName": "Vendev\u00e4gen", "lon": 18.0679789872506, "lat": 59.3999471300588}, {"StopAreaNumber": 6651, "StopAreaName": "Djursholms \u00d6sby", "lon": 18.0588036532179, "lat": 59.3980429113344}, {"StopAreaNumber": 7141, "StopAreaName": "M\u00f6rby", "lon": 18.047453307154, "lat": 59.3923432962333}, {"StopAreaNumber": 7131, "StopAreaName": "Stocksund", "lon": 18.0439158594474, "lat": 59.3850988622932}, {"StopAreaNumber": 7111, "StopAreaName": "Universitetet", "lon": 18.0509549442227, "lat": 59.365105631995}, {"StopAreaNumber": 6601, "StopAreaName": "Stockholms \u00f6stra", "lon": 18.0700546546578, "lat": 59.3468004454582}, {"StopAreaNumber": 6971, "StopAreaName": "N\u00e4sbypark", "lon": 18.0956163876375, "lat": 59.4303060726555}], "291": [{"StopAreaNumber": 20021, "StopAreaName": "Torsvikstorg", "lon": 18.1238955499888, "lat": 59.3638833413106}, {"StopAreaNumber": 20031, "StopAreaName": "Sturev\u00e4gen", "lon": 18.1301134326335, "lat": 59.3654160102139}, {"StopAreaNumber": 20041, "StopAreaName": "Liding\u00f6 centrum", "lon": 18.1328254322359, "lat": 59.3650713029675}, {"StopAreaNumber": 20761, "StopAreaName": "Drottningv\u00e4gen", "lon": 18.1327910788515, "lat": 59.3620007378161}, {"StopAreaNumber": 21001, "StopAreaName": "Baggeby torg", "lon": 18.1345075546216, "lat": 59.3556032301071}, {"StopAreaNumber": 21011, "StopAreaName": "Bodals station", "lon": 18.1375393598809, "lat": 59.3528819616121}, {"StopAreaNumber": 21021, "StopAreaName": "Bodals skola", "lon": 18.1382394640723, "lat": 59.351423645188}, {"StopAreaNumber": 21051, "StopAreaName": "Larsbergs station", "lon": 18.1432859829274, "lat": 59.3498829753641}, {"StopAreaNumber": 20811, "StopAreaName": "H\u00f6gs\u00e4tra", "lon": 18.1519715777965, "lat": 59.3511413230706}, {"StopAreaNumber": 21111, "StopAreaName": "AGA", "lon": 18.1550961295698, "lat": 59.3471158340663}, {"StopAreaNumber": 21121, "StopAreaName": "Centralv\u00e4gen", "lon": 18.1673313778336, "lat": 59.3437457093777}, {"StopAreaNumber": 21131, "StopAreaName": "Sk\u00e4rs\u00e4tra", "lon": 18.1720982281241, "lat": 59.3431892983856}, {"StopAreaNumber": 23503, "StopAreaName": "Tyk\u00f6v\u00e4gen", "lon": 18.1781192319615, "lat": 59.3417956849653}, {"StopAreaNumber": 21151, "StopAreaName": "H\u00f6gberga", "lon": 18.1945947033864, "lat": 59.3430842898825}, {"StopAreaNumber": 21161, "StopAreaName": "Seglarv\u00e4gen", "lon": 18.196655740421, "lat": 59.3441420955181}, {"StopAreaNumber": 21171, "StopAreaName": "Breviks station", "lon": 18.2036122491578, "lat": 59.3482979136846}, {"StopAreaNumber": 21181, "StopAreaName": "K\u00e4ppala station", "lon": 18.2182795230965, "lat": 59.3530383251862}, {"StopAreaNumber": 20680, "StopAreaName": "G\u00e5shaga strand", "lon": 18.2258054013824, "lat": 59.3604333569527}, {"StopAreaNumber": 21202, "StopAreaName": "G\u00e5shaga", "lon": 18.2292240014679, "lat": 59.3570650901804}, {"StopAreaNumber": 21191, "StopAreaName": "Talludden", "lon": 18.2221351350217, "lat": 59.3555712197995}, {"StopAreaNumber": 10032, "StopAreaName": "Ropsten", "lon": 18.1030888150745, "lat": 59.3574357494392}, {"StopAreaNumber": 10024, "StopAreaName": "H\u00f6torget", "lon": 18.0625386633883, "lat": 59.3355595203735}, {"StopAreaNumber": 10505, "StopAreaName": "Regeringsgatan", "lon": 18.0670809682428, "lat": 59.3359272021299}, {"StopAreaNumber": 10031, "StopAreaName": "Stureplan", "lon": 18.073299572224, "lat": 59.3358846094887}, {"StopAreaNumber": 10033, "StopAreaName": "Linn\u00e9gatan", "lon": 18.0749088904638, "lat": 59.3386673135182}, {"StopAreaNumber": 10034, "StopAreaName": "Humleg\u00e5rden", "lon": 18.0763181281101, "lat": 59.3405554941255}, {"StopAreaNumber": 10199, "StopAreaName": "Stadion", "lon": 18.0774232848382, "lat": 59.3436792078199}, {"StopAreaNumber": 10919, "StopAreaName": "Starrb\u00e4cks\u00e4ngen", "lon": 18.0873444650968, "lat": 59.3471697553682}, {"StopAreaNumber": 10064, "StopAreaName": "Tegeluddsv\u00e4gen", "lon": 18.0978836676737, "lat": 59.3501458271491}, {"StopAreaNumber": 10847, "StopAreaName": "Erik Dahlbergsgatan", "lon": 18.0926753069611, "lat": 59.34865682103}, {"StopAreaNumber": 10910, "StopAreaName": "Cityterminalen", "lon": 18.0554358125231, "lat": 59.3315425957525}], "293": [{"StopAreaNumber": 20021, "StopAreaName": "Torsvikstorg", "lon": 18.1238955499888, "lat": 59.3638833413106}, {"StopAreaNumber": 20031, "StopAreaName": "Sturev\u00e4gen", "lon": 18.1301134326335, "lat": 59.3654160102139}, {"StopAreaNumber": 20041, "StopAreaName": "Liding\u00f6 centrum", "lon": 18.1328254322359, "lat": 59.3650713029675}, {"StopAreaNumber": 20641, "StopAreaName": "Odenv\u00e4gen", "lon": 18.1337940657967, "lat": 59.3673978086586}, {"StopAreaNumber": 20651, "StopAreaName": "Dal\u00e4ngen", "lon": 18.1284252906701, "lat": 59.3709598290663}, {"StopAreaNumber": 20921, "StopAreaName": "\u00c4girv\u00e4gen", "lon": 18.1348534015868, "lat": 59.3709170349528}, {"StopAreaNumber": 20931, "StopAreaName": "H\u00f6gn\u00e4sv\u00e4gen", "lon": 18.1474664054399, "lat": 59.372280656867}, {"StopAreaNumber": 20941, "StopAreaName": "K\u00e4ll\u00e4ngstorget", "lon": 18.1440066622397, "lat": 59.3732721662565}, {"StopAreaNumber": 20951, "StopAreaName": "N\u00e4set", "lon": 18.1400894748502, "lat": 59.3734994835558}, {"StopAreaNumber": 20231, "StopAreaName": "Liding\u00f6vallen", "lon": 18.155863793815, "lat": 59.3714920282488}, {"StopAreaNumber": 20241, "StopAreaName": "Askrikev\u00e4gen", "lon": 18.1619080906511, "lat": 59.3722136375505}, {"StopAreaNumber": 20251, "StopAreaName": "Grankottev\u00e4gen", "lon": 18.1724892977533, "lat": 59.3735621537635}, {"StopAreaNumber": 20261, "StopAreaName": "Rudboda torg", "lon": 18.176582966672, "lat": 59.3748572824501}, {"StopAreaNumber": 20271, "StopAreaName": "Lojov\u00e4gen", "lon": 18.1800367557234, "lat": 59.3753018377592}, {"StopAreaNumber": 20281, "StopAreaName": "Hembyv\u00e4gen", "lon": 18.1898777606265, "lat": 59.3725988851079}, {"StopAreaNumber": 20291, "StopAreaName": "S\u00f6dergarnsv\u00e4gen", "lon": 18.1970499636656, "lat": 59.3729974148717}, {"StopAreaNumber": 20221, "StopAreaName": "Kvarnen", "lon": 18.1529654824305, "lat": 59.3669374250811}, {"StopAreaNumber": 20211, "StopAreaName": "Hersbyholm", "lon": 18.1459350746591, "lat": 59.3672927636118}, {"StopAreaNumber": 20043, "StopAreaName": "Lejonv\u00e4gen", "lon": 18.1385991203191, "lat": 59.3662747468262}, {"StopAreaNumber": 10032, "StopAreaName": "Ropsten", "lon": 18.1030888150745, "lat": 59.3574357494392}], "3": [{"StopAreaNumber": 10346, "StopAreaName": "Karolinska institutet Biomedicum", "lon": 18.0267593000516, "lat": 59.3496527242596}, {"StopAreaNumber": 10401, "StopAreaName": "Eriksdal", "lon": 18.0690150177449, "lat": 59.3076723622231}, {"StopAreaNumber": 10357, "StopAreaName": "Karolinska sjukhuset Eugeniav\u00e4gen", "lon": 18.029816386021, "lat": 59.3480022127816}, {"StopAreaNumber": 10136, "StopAreaName": "Rosenlund", "lon": 18.0630901381298, "lat": 59.3090323507274}, {"StopAreaNumber": 10359, "StopAreaName": "Torsplan", "lon": 18.0328671207273, "lat": 59.3454537571062}, {"StopAreaNumber": 10406, "StopAreaName": "S\u00f6dersjukhuset", "lon": 18.0572856736434, "lat": 59.3100068412074}, {"StopAreaNumber": 10179, "StopAreaName": "Karlbergsv\u00e4gen", "lon": 18.036841219093, "lat": 59.3422835862938}, {"StopAreaNumber": 10363, "StopAreaName": "S:t Eriksplan", "lon": 18.03779418974, "lat": 59.339725692704}, {"StopAreaNumber": 10367, "StopAreaName": "Fleminggatan", "lon": 18.0329189814266, "lat": 59.335103672774}, {"StopAreaNumber": 10369, "StopAreaName": "Fridhemsplan", "lon": 18.0291665515036, "lat": 59.3321460417083}, {"StopAreaNumber": 10371, "StopAreaName": "Kronobergsgatan", "lon": 18.0317375415016, "lat": 59.3308809057172}, {"StopAreaNumber": 10373, "StopAreaName": "Polhemsgatan", "lon": 18.0357675035561, "lat": 59.3301609779305}, {"StopAreaNumber": 10375, "StopAreaName": "Landstingshuset", "lon": 18.04053041268, "lat": 59.3293654987674}, {"StopAreaNumber": 10377, "StopAreaName": "Kungsholmstorg", "lon": 18.0432845186684, "lat": 59.3292913040043}, {"StopAreaNumber": 10379, "StopAreaName": "Kungsholms kyrka", "lon": 18.0473739127322, "lat": 59.3284128446837}, {"StopAreaNumber": 10381, "StopAreaName": "Stadshuset", "lon": 18.0541922171345, "lat": 59.3278823147329}, {"StopAreaNumber": 10383, "StopAreaName": "Tegelbacken", "lon": 18.0623513670852, "lat": 59.3284955992366}, {"StopAreaNumber": 10385, "StopAreaName": "Riddarhustorget", "lon": 18.0662742596166, "lat": 59.3253834287356}, {"StopAreaNumber": 10387, "StopAreaName": "M\u00e4lartorget", "lon": 18.0682078075817, "lat": 59.3230150986107}, {"StopAreaNumber": 11002, "StopAreaName": "Slussen", "lon": 18.0721576068741, "lat": 59.3195002550837}, {"StopAreaNumber": 10250, "StopAreaName": "Tj\u00e4rhovsplan", "lon": 18.0833729495817, "lat": 59.3164829041334}, {"StopAreaNumber": 10251, "StopAreaName": "\u00c5s\u00f6gatan", "lon": 18.0844779334659, "lat": 59.3138324537991}, {"StopAreaNumber": 10395, "StopAreaName": "Gotlandsgatan", "lon": 18.0862992766124, "lat": 59.310603714915}, {"StopAreaNumber": 10397, "StopAreaName": "S\u00f6dermannagatan", "lon": 18.0827177780841, "lat": 59.3090499677727}, {"StopAreaNumber": 10261, "StopAreaName": "Skanstull", "lon": 18.0761834236645, "lat": 59.3077182425914}, {"StopAreaNumber": 10122, "StopAreaName": "Slottsbacken", "lon": 18.0737769570679, "lat": 59.3266994570614}, {"StopAreaNumber": 50800, "StopAreaName": "Karolinska sjukhuset norra", "lon": 18.0320408870042, "lat": 59.3529749558044}, {"StopAreaNumber": 10419, "StopAreaName": "", "lon": 18.068928660424, "lat": 59.3268748456666}, {"StopAreaNumber": 10976, "StopAreaName": "Mandelparken", "lon": 18.0987081147049, "lat": 59.3115173816184}, {"StopAreaNumber": 10256, "StopAreaName": "Sofiaskolan", "lon": 18.0941911492768, "lat": 59.3133030033605}, {"StopAreaNumber": 10255, "StopAreaName": "Erstagatan", "lon": 18.0900885576148, "lat": 59.3139407404132}, {"StopAreaNumber": 10254, "StopAreaName": "Ersta sjukhus", "lon": 18.0899482270385, "lat": 59.3155146973987}, {"StopAreaNumber": 10821, "StopAreaName": "Ljuster\u00f6gatan", "lon": 18.0892624728, "lat": 59.3084325326643}, {"StopAreaNumber": 10881, "StopAreaName": "Barn\u00e4ngen", "lon": 18.0973212518012, "lat": 59.3097008822364}], "30": [{"StopAreaNumber": 4533, "StopAreaName": "Sickla udde", "lon": 18.1075987715634, "lat": 59.3058468523417}, {"StopAreaNumber": 4509, "StopAreaName": "\u00c5rstaf\u00e4ltet", "lon": 18.0397131672634, "lat": 59.2962978020046}, {"StopAreaNumber": 4523, "StopAreaName": "Alviks strand", "lon": 17.9820266256609, "lat": 59.3289008348691}, {"StopAreaNumber": 4525, "StopAreaName": "Alvik", "lon": 17.9801912945632, "lat": 59.3335919018951}, {"StopAreaNumber": 4535, "StopAreaName": "Johannesfred", "lon": 17.9698289810433, "lat": 59.3428444999092}, {"StopAreaNumber": 4537, "StopAreaName": "Norra Ulvsunda", "lon": 17.9623087237074, "lat": 59.3507211501488}, {"StopAreaNumber": 4539, "StopAreaName": "Karlsbodav\u00e4gen", "lon": 17.9613390198905, "lat": 59.3562515616115}, {"StopAreaNumber": 4541, "StopAreaName": "B\u00e4llsta bro", "lon": 17.9629660432964, "lat": 59.360680580368}, {"StopAreaNumber": 4543, "StopAreaName": "Sundbybergs centrum", "lon": 17.9704076988361, "lat": 59.3608391644953}, {"StopAreaNumber": 4545, "StopAreaName": "Solna Business Park", "lon": 17.9787876524914, "lat": 59.359753787729}, {"StopAreaNumber": 4547, "StopAreaName": "Solna centrum", "lon": 17.9962836931578, "lat": 59.3613565823156}, {"StopAreaNumber": 4549, "StopAreaName": "Solna station", "lon": 18.0100604867462, "lat": 59.3645706432127}, {"StopAreaNumber": 4521, "StopAreaName": "Stora Essingen", "lon": 17.9946270722779, "lat": 59.3244065087778}, {"StopAreaNumber": 4507, "StopAreaName": "Valla torg", "lon": 18.0484413964605, "lat": 59.2950073566151}, {"StopAreaNumber": 7611, "StopAreaName": "Sickla", "lon": 18.1211454661786, "lat": 59.306980718565}, {"StopAreaNumber": 4531, "StopAreaName": "Sickla kaj", "lon": 18.1036242535928, "lat": 59.3027695225594}, {"StopAreaNumber": 4529, "StopAreaName": "Luma", "lon": 18.0958781161264, "lat": 59.3041721250747}, {"StopAreaNumber": 4515, "StopAreaName": "Liljeholmen", "lon": 18.0248094685751, "lat": 59.310605966566}, {"StopAreaNumber": 4517, "StopAreaName": "Trekanten", "lon": 18.0186104417264, "lat": 59.3141326995956}, {"StopAreaNumber": 4511, "StopAreaName": "\u00c5rstaberg", "lon": 18.0309049232872, "lat": 59.298792318212}, {"StopAreaNumber": 4519, "StopAreaName": "Gr\u00f6ndal", "lon": 18.0117267942363, "lat": 59.3159241531659}, {"StopAreaNumber": 4513, "StopAreaName": "\u00c5rstadal", "lon": 18.0257516312152, "lat": 59.3056600060074}, {"StopAreaNumber": 4505, "StopAreaName": "Linde", "lon": 18.0636547312686, "lat": 59.2933077098887}, {"StopAreaNumber": 4503, "StopAreaName": "Globen", "lon": 18.076611840007, "lat": 59.2941241004286}, {"StopAreaNumber": 4501, "StopAreaName": "Gullmarsplan", "lon": 18.080314423746, "lat": 59.2994923710275}, {"StopAreaNumber": 4527, "StopAreaName": "M\u00e5rtensdal", "lon": 18.0880336878475, "lat": 59.3026754454889}], "31": [{"StopAreaNumber": 4525, "StopAreaName": "Alvik", "lon": 17.9801912945632, "lat": 59.3335919018951}, {"StopAreaNumber": 4535, "StopAreaName": "Johannesfred", "lon": 17.9698289810433, "lat": 59.3428444999092}, {"StopAreaNumber": 4537, "StopAreaName": "Norra Ulvsunda", "lon": 17.9623087237074, "lat": 59.3507211501488}, {"StopAreaNumber": 4561, "StopAreaName": "Bromma Blocks", "lon": 17.9567096849139, "lat": 59.3539170085363}, {"StopAreaNumber": 4523, "StopAreaName": "Alviks strand", "lon": 17.9820266256609, "lat": 59.3289008348691}], "4": [{"StopAreaNumber": 10627, "StopAreaName": "Garnisonen", "lon": 18.0950598338073, "lat": 59.3366716196516}, {"StopAreaNumber": 10203, "StopAreaName": "Ban\u00e9rgatan", "lon": 18.0961721832922, "lat": 59.3388342108195}, {"StopAreaNumber": 10045, "StopAreaName": "V\u00e4rtav\u00e4gen", "lon": 18.0933420652637, "lat": 59.3401411050351}, {"StopAreaNumber": 10040, "StopAreaName": "Jungfrugatan", "lon": 18.0859050014573, "lat": 59.3419596385908}, {"StopAreaNumber": 10198, "StopAreaName": "Musikh\u00f6gskolan", "lon": 18.0814600576893, "lat": 59.3430520444781}, {"StopAreaNumber": 10199, "StopAreaName": "Stadion", "lon": 18.0774232848382, "lat": 59.3436792078199}, {"StopAreaNumber": 60080, "StopAreaName": "Tekniska h\u00f6gskolan", "lon": 18.0717945909683, "lat": 59.3454833520777}, {"StopAreaNumber": 10193, "StopAreaName": "Valhallav\u00e4gen", "lon": 18.066108384731, "lat": 59.3466955715948}, {"StopAreaNumber": 10191, "StopAreaName": "Roslagsgatan", "lon": 18.0606154102722, "lat": 59.3455245346987}, {"StopAreaNumber": 10188, "StopAreaName": "Stadsbiblioteket", "lon": 18.0553124202201, "lat": 59.344296112913}, {"StopAreaNumber": 10151, "StopAreaName": "Odenplan", "lon": 18.049101216406, "lat": 59.3428855557011}, {"StopAreaNumber": 10183, "StopAreaName": "Dalagatan", "lon": 18.0446534120655, "lat": 59.3412827963757}, {"StopAreaNumber": 10363, "StopAreaName": "S:t Eriksplan", "lon": 18.03779418974, "lat": 59.339725692704}, {"StopAreaNumber": 10367, "StopAreaName": "Fleminggatan", "lon": 18.0329189814266, "lat": 59.335103672774}, {"StopAreaNumber": 10369, "StopAreaName": "Fridhemsplan", "lon": 18.0291665515036, "lat": 59.3321460417083}, {"StopAreaNumber": 10421, "StopAreaName": "Mariebergsgatan", "lon": 18.0244430977815, "lat": 59.3319391823337}, {"StopAreaNumber": 10645, "StopAreaName": "V\u00e4sterbroplan", "lon": 18.0211227966964, "lat": 59.3281792641087}, {"StopAreaNumber": 10647, "StopAreaName": "H\u00f6galidsgatan", "lon": 18.03230684363, "lat": 59.3184970190705}, {"StopAreaNumber": 10649, "StopAreaName": "Hornstull", "lon": 18.0341422280162, "lat": 59.3155382243673}, {"StopAreaNumber": 10651, "StopAreaName": "Varvsgatan", "lon": 18.0407230129803, "lat": 59.3162426715756}, {"StopAreaNumber": 10655, "StopAreaName": "Zinkensdamm", "lon": 18.0503465608405, "lat": 59.3175319769621}, {"StopAreaNumber": 10657, "StopAreaName": "Rosenlundsgatan", "lon": 18.0554001268642, "lat": 59.3174448216997}, {"StopAreaNumber": 10661, "StopAreaName": "S\u00f6dra station", "lon": 18.0577473258315, "lat": 59.3126943250437}, {"StopAreaNumber": 10136, "StopAreaName": "Rosenlund", "lon": 18.0630901381298, "lat": 59.3090323507274}, {"StopAreaNumber": 10401, "StopAreaName": "Eriksdal", "lon": 18.0690150177449, "lat": 59.3076723622231}, {"StopAreaNumber": 10261, "StopAreaName": "Skanstull", "lon": 18.0761834236645, "lat": 59.3077182425914}, {"StopAreaNumber": 11725, "StopAreaName": "Gullmarsplan", "lon": 18.076545652063, "lat": 59.2983997165144}, {"StopAreaNumber": 10658, "StopAreaName": "Hornsgatan/Rosenlundsgatan", "lon": 18.0550169225046, "lat": 59.3180261493115}, {"StopAreaNumber": 10098, "StopAreaName": "Radiohuset", "lon": 18.1003196968935, "lat": 59.3355621453855}], "40": [{"StopAreaNumber": 5006, "StopAreaName": "Knivsta", "lon": 17.786933454199, "lat": 59.726552854583}, {"StopAreaNumber": 5001, "StopAreaName": "Arlanda central", "lon": 17.9285180251875, "lat": 59.649383723293}, {"StopAreaNumber": 5101, "StopAreaName": "Upplands V\u00e4sby", "lon": 17.8993487879353, "lat": 59.5216668658327}, {"StopAreaNumber": 5091, "StopAreaName": "Rotebro", "lon": 17.9140913938943, "lat": 59.4765652648862}, {"StopAreaNumber": 5081, "StopAreaName": "Norrviken", "lon": 17.9246917576018, "lat": 59.4579997083848}, {"StopAreaNumber": 5071, "StopAreaName": "H\u00e4ggvik", "lon": 17.9332179507967, "lat": 59.4435031535322}, {"StopAreaNumber": 5061, "StopAreaName": "Sollentuna", "lon": 17.9488470459904, "lat": 59.4280095745327}, {"StopAreaNumber": 5051, "StopAreaName": "Helenelund", "lon": 17.9620093715309, "lat": 59.4094029063589}, {"StopAreaNumber": 5041, "StopAreaName": "Ulriksdal", "lon": 18.001071203061, "lat": 59.3799002585519}, {"StopAreaNumber": 5031, "StopAreaName": "Solna", "lon": 18.0101255255316, "lat": 59.3651151932339}, {"StopAreaNumber": 5320, "StopAreaName": "Stockholm Odenplan", "lon": 18.0489073517274, "lat": 59.3428464541468}, {"StopAreaNumber": 5310, "StopAreaName": "Stockholm City", "lon": 18.0594473186, "lat": 59.3311395346819}, {"StopAreaNumber": 5131, "StopAreaName": "Stockholms s\u00f6dra", "lon": 18.0619399778215, "lat": 59.3135422257894}, {"StopAreaNumber": 5135, "StopAreaName": "\u00c5rstaberg", "lon": 18.028338320862, "lat": 59.2996847322819}, {"StopAreaNumber": 5141, "StopAreaName": "\u00c4lvsj\u00f6", "lon": 18.0104402896786, "lat": 59.2785496878604}, {"StopAreaNumber": 5151, "StopAreaName": "Stuvsta", "lon": 17.9962852273183, "lat": 59.2532232154233}, {"StopAreaNumber": 5161, "StopAreaName": "Huddinge", "lon": 17.9804786386772, "lat": 59.2373966126058}, {"StopAreaNumber": 5171, "StopAreaName": "Flemingsberg", "lon": 17.9471769644139, "lat": 59.2190288346638}, {"StopAreaNumber": 5181, "StopAreaName": "Tullinge", "lon": 17.9037541544137, "lat": 59.2054500368457}, {"StopAreaNumber": 5191, "StopAreaName": "Tumba", "lon": 17.8370789197977, "lat": 59.1996506953171}, {"StopAreaNumber": 5201, "StopAreaName": "R\u00f6nninge", "lon": 17.751511388785, "lat": 59.1936031418383}, {"StopAreaNumber": 5211, "StopAreaName": "\u00d6stert\u00e4lje", "lon": 17.6614410184043, "lat": 59.1837859791684}, {"StopAreaNumber": 5221, "StopAreaName": "S\u00f6dert\u00e4lje hamn", "lon": 17.6463186073004, "lat": 59.1791254082757}, {"StopAreaNumber": 5231, "StopAreaName": "S\u00f6dert\u00e4lje centrum", "lon": 17.627291537472, "lat": 59.1920671534113}, {"StopAreaNumber": 5007, "StopAreaName": "Uppsala C", "lon": 17.6485152796153, "lat": 59.8585627273271}], "401": [{"StopAreaNumber": 10591, "StopAreaName": "Londonviadukten", "lon": 18.0967644860371, "lat": 59.3147394769679}, {"StopAreaNumber": 10595, "StopAreaName": "Henriksdal", "lon": 18.1072312028769, "lat": 59.311582612208}, {"StopAreaNumber": 40011, "StopAreaName": "Sickla all\u00e9", "lon": 18.118470372447, "lat": 59.3035349895369}, {"StopAreaNumber": 40013, "StopAreaName": "Sickla strand", "lon": 18.124048850827, "lat": 59.3031933605564}, {"StopAreaNumber": 40019, "StopAreaName": "Nys\u00e4trav\u00e4gen", "lon": 18.1326268464938, "lat": 59.3030628553645}, {"StopAreaNumber": 40021, "StopAreaName": "Nackan\u00e4s", "lon": 18.1399608920987, "lat": 59.3014364377333}, {"StopAreaNumber": 40023, "StopAreaName": "Nacka kvarn", "lon": 18.148259276308, "lat": 59.3001828955634}, {"StopAreaNumber": 40027, "StopAreaName": "Dammtorp", "lon": 18.1447348687138, "lat": 59.2955226680179}, {"StopAreaNumber": 40029, "StopAreaName": "Hellasg\u00e5rden", "lon": 18.1603145636692, "lat": 59.2887671867329}, {"StopAreaNumber": 40031, "StopAreaName": "K\u00e4lltorp", "lon": 18.1709091321214, "lat": 59.2871428333133}, {"StopAreaNumber": 40035, "StopAreaName": "Tenntorp", "lon": 18.1816544237409, "lat": 59.2830362934449}, {"StopAreaNumber": 40037, "StopAreaName": "Kolar\u00e4ngen", "lon": 18.1760957105509, "lat": 59.2733850201633}, {"StopAreaNumber": 40039, "StopAreaName": "Klis\u00e4trav\u00e4gen", "lon": 18.177677451464, "lat": 59.2706486493839}, {"StopAreaNumber": 40041, "StopAreaName": "Ormbunksv\u00e4gen", "lon": 18.1770035307584, "lat": 59.2680207198725}, {"StopAreaNumber": 40045, "StopAreaName": "\u00c4lta g\u00e5rd", "lon": 18.1851839037419, "lat": 59.2613113058701}, {"StopAreaNumber": 40048, "StopAreaName": "Stavsborgsskolan", "lon": 18.1791091896453, "lat": 59.2575651802933}, {"StopAreaNumber": 40004, "StopAreaName": "Ekstubben", "lon": 18.1738376112004, "lat": 59.2515590949801}, {"StopAreaNumber": 40051, "StopAreaName": "\u00d6stra Stens\u00f6", "lon": 18.1746246281106, "lat": 59.2533408319294}, {"StopAreaNumber": 40034, "StopAreaName": "Almv\u00e4gen", "lon": 18.1821526481248, "lat": 59.2578284417461}, {"StopAreaNumber": 40016, "StopAreaName": "Tallbacken", "lon": 18.1269823560311, "lat": 59.3026921112157}, {"StopAreaNumber": 11002, "StopAreaName": "Slussen", "lon": 18.0721576068741, "lat": 59.3195002550837}, {"StopAreaNumber": 40049, "StopAreaName": "\u00c4lta centrum", "lon": 18.1755506040258, "lat": 59.2564491200482}], "402": [{"StopAreaNumber": 10591, "StopAreaName": "Londonviadukten", "lon": 18.0967644860371, "lat": 59.3147394769679}, {"StopAreaNumber": 10593, "StopAreaName": "Danvikstull", "lon": 18.1007327439096, "lat": 59.3139332754479}, {"StopAreaNumber": 10599, "StopAreaName": "Henriksdalsviadukten", "lon": 18.1082136109956, "lat": 59.3114350426504}, {"StopAreaNumber": 10985, "StopAreaName": "Danvikshemsv\u00e4gen", "lon": 18.1159308654578, "lat": 59.3129552432037}, {"StopAreaNumber": 10987, "StopAreaName": "Finnboda hamn", "lon": 18.1206999797318, "lat": 59.3132163206089}, {"StopAreaNumber": 10949, "StopAreaName": "G\u00e4ddviken", "lon": 18.1283125532796, "lat": 59.3126722356177}, {"StopAreaNumber": 10991, "StopAreaName": "Finnbergsv\u00e4gen", "lon": 18.13185119574, "lat": 59.3129189153627}, {"StopAreaNumber": 10993, "StopAreaName": "Mj\u00f6lnarv\u00e4gen", "lon": 18.133414227022, "lat": 59.3153560393539}, {"StopAreaNumber": 10995, "StopAreaName": "Tre kronor", "lon": 18.1361646955206, "lat": 59.3169303598302}, {"StopAreaNumber": 40523, "StopAreaName": "Nacka gymnasium", "lon": 18.1518379055747, "lat": 59.3107150950822}, {"StopAreaNumber": 40117, "StopAreaName": "Nacka Forum  stadshuset", "lon": 18.162446161027, "lat": 59.3099788354819}, {"StopAreaNumber": 11002, "StopAreaName": "Slussen", "lon": 18.0721576068741, "lat": 59.3195002550837}, {"StopAreaNumber": 10595, "StopAreaName": "Henriksdal", "lon": 18.1072312028769, "lat": 59.311582612208}], "403": [{"StopAreaNumber": 10591, "StopAreaName": "Londonviadukten", "lon": 18.0967644860371, "lat": 59.3147394769679}, {"StopAreaNumber": 10595, "StopAreaName": "Henriksdal", "lon": 18.1072312028769, "lat": 59.311582612208}, {"StopAreaNumber": 40011, "StopAreaName": "Sickla all\u00e9", "lon": 18.118470372447, "lat": 59.3035349895369}, {"StopAreaNumber": 40013, "StopAreaName": "Sickla strand", "lon": 18.124048850827, "lat": 59.3031933605564}, {"StopAreaNumber": 40019, "StopAreaName": "Nys\u00e4trav\u00e4gen", "lon": 18.1326268464938, "lat": 59.3030628553645}, {"StopAreaNumber": 40021, "StopAreaName": "Nackan\u00e4s", "lon": 18.1399608920987, "lat": 59.3014364377333}, {"StopAreaNumber": 40023, "StopAreaName": "Nacka kvarn", "lon": 18.148259276308, "lat": 59.3001828955634}, {"StopAreaNumber": 40091, "StopAreaName": "Erstag\u00e5rden", "lon": 18.1541121866897, "lat": 59.2987394486743}, {"StopAreaNumber": 40093, "StopAreaName": "Fruktv\u00e4gen", "lon": 18.1582997754416, "lat": 59.2975952309877}, {"StopAreaNumber": 40095, "StopAreaName": "\u00d6sterv\u00e4gen", "lon": 18.1642846070166, "lat": 59.2992111902201}, {"StopAreaNumber": 40016, "StopAreaName": "Tallbacken", "lon": 18.1269823560311, "lat": 59.3026921112157}, {"StopAreaNumber": 11002, "StopAreaName": "Slussen", "lon": 18.0721576068741, "lat": 59.3195002550837}], "409": [{"StopAreaNumber": 10591, "StopAreaName": "Londonviadukten", "lon": 18.0967644860371, "lat": 59.3147394769679}, {"StopAreaNumber": 10595, "StopAreaName": "Henriksdal", "lon": 18.1072312028769, "lat": 59.311582612208}, {"StopAreaNumber": 40103, "StopAreaName": "Sickla bro", "lon": 18.1223723348487, "lat": 59.3068152243578}, {"StopAreaNumber": 40107, "StopAreaName": "Nacka station", "lon": 18.1304414563285, "lat": 59.3068061742651}, {"StopAreaNumber": 40109, "StopAreaName": "Finntorp", "lon": 18.138535643567, "lat": 59.3067782147752}, {"StopAreaNumber": 40111, "StopAreaName": "J\u00e4rla station", "lon": 18.1522318799408, "lat": 59.3075110565597}, {"StopAreaNumber": 40113, "StopAreaName": "Lill\u00e4ngen", "lon": 18.1586311282292, "lat": 59.3073507264872}, {"StopAreaNumber": 40116, "StopAreaName": "Nacka Forum", "lon": 18.1654223276967, "lat": 59.3085389945019}, {"StopAreaNumber": 40175, "StopAreaName": "Stor\u00e4ngen", "lon": 18.1756436888832, "lat": 59.309074538491}, {"StopAreaNumber": 40177, "StopAreaName": "L\u00e5ngsj\u00f6strand", "lon": 18.1858866239268, "lat": 59.3090871648016}, {"StopAreaNumber": 40179, "StopAreaName": "Skogalund", "lon": 18.1934720348943, "lat": 59.3095590075214}, {"StopAreaNumber": 40181, "StopAreaName": "Ektorps centrum", "lon": 18.1993083383212, "lat": 59.3103813626181}, {"StopAreaNumber": 40253, "StopAreaName": "Skuru skola", "lon": 18.2078148018507, "lat": 59.3117020518451}, {"StopAreaNumber": 40255, "StopAreaName": "Skurustugan", "lon": 18.2122496418879, "lat": 59.31368568423}, {"StopAreaNumber": 40211, "StopAreaName": "Skuru torg", "lon": 18.2143307024581, "lat": 59.3157890417969}, {"StopAreaNumber": 40209, "StopAreaName": "Skuru idrottsplats", "lon": 18.2135497011917, "lat": 59.3176624126204}, {"StopAreaNumber": 40207, "StopAreaName": "Kr\u00f6net", "lon": 18.2139092730679, "lat": 59.3211311649299}, {"StopAreaNumber": 40205, "StopAreaName": "Drottninghamnsv\u00e4gen", "lon": 18.2131890194273, "lat": 59.3227474677415}, {"StopAreaNumber": 40203, "StopAreaName": "Prinsv\u00e4gen", "lon": 18.2146668776448, "lat": 59.3252571035873}, {"StopAreaNumber": 40202, "StopAreaName": "Kungsborgsv\u00e4gen", "lon": 18.2161027566895, "lat": 59.3265506630149}, {"StopAreaNumber": 40199, "StopAreaName": "Rudsj\u00f6v\u00e4gen", "lon": 18.2137190978014, "lat": 59.3280046474197}, {"StopAreaNumber": 40197, "StopAreaName": "Lindholmsplan", "lon": 18.2132347973631, "lat": 59.329728841495}, {"StopAreaNumber": 40193, "StopAreaName": "Kungshamn", "lon": 18.2071968560222, "lat": 59.329961482905}, {"StopAreaNumber": 40196, "StopAreaName": "Visborgs minne", "lon": 18.2072472039414, "lat": 59.332542397651}, {"StopAreaNumber": 40191, "StopAreaName": "Knut Stangenbergs v\u00e4g", "lon": 18.2055320475736, "lat": 59.3256681269848}, {"StopAreaNumber": 40189, "StopAreaName": "Sten Stures v\u00e4g", "lon": 18.2040118460408, "lat": 59.3230469208054}, {"StopAreaNumber": 40187, "StopAreaName": "Utskogsv\u00e4gen", "lon": 18.2052535910245, "lat": 59.3208463302272}, {"StopAreaNumber": 40185, "StopAreaName": "Br\u00e5vallaplan", "lon": 18.2033296642333, "lat": 59.317478204831}, {"StopAreaNumber": 40183, "StopAreaName": "Edinsv\u00e4gen", "lon": 18.199193789498, "lat": 59.3134996379244}, {"StopAreaNumber": 40106, "StopAreaName": "Alphyddan", "lon": 18.1267572993795, "lat": 59.3068628895199}, {"StopAreaNumber": 11002, "StopAreaName": "Slussen", "lon": 18.0721576068741, "lat": 59.3195002550837}], "41": [{"StopAreaNumber": 5101, "StopAreaName": "Upplands V\u00e4sby", "lon": 17.8993487879353, "lat": 59.5216668658327}, {"StopAreaNumber": 5091, "StopAreaName": "Rotebro", "lon": 17.9140913938943, "lat": 59.4765652648862}, {"StopAreaNumber": 5081, "StopAreaName": "Norrviken", "lon": 17.9246917576018, "lat": 59.4579997083848}, {"StopAreaNumber": 5071, "StopAreaName": "H\u00e4ggvik", "lon": 17.9332179507967, "lat": 59.4435031535322}, {"StopAreaNumber": 5061, "StopAreaName": "Sollentuna", "lon": 17.9488470459904, "lat": 59.4280095745327}, {"StopAreaNumber": 5051, "StopAreaName": "Helenelund", "lon": 17.9620093715309, "lat": 59.4094029063589}, {"StopAreaNumber": 5041, "StopAreaName": "Ulriksdal", "lon": 18.001071203061, "lat": 59.3799002585519}, {"StopAreaNumber": 5031, "StopAreaName": "Solna", "lon": 18.0101255255316, "lat": 59.3651151932339}, {"StopAreaNumber": 5320, "StopAreaName": "Stockholm Odenplan", "lon": 18.0489073517274, "lat": 59.3428464541468}, {"StopAreaNumber": 5310, "StopAreaName": "Stockholm City", "lon": 18.0594473186, "lat": 59.3311395346819}, {"StopAreaNumber": 5131, "StopAreaName": "Stockholms s\u00f6dra", "lon": 18.0619399778215, "lat": 59.3135422257894}, {"StopAreaNumber": 5135, "StopAreaName": "\u00c5rstaberg", "lon": 18.028338320862, "lat": 59.2996847322819}, {"StopAreaNumber": 5141, "StopAreaName": "\u00c4lvsj\u00f6", "lon": 18.0104402896786, "lat": 59.2785496878604}, {"StopAreaNumber": 5151, "StopAreaName": "Stuvsta", "lon": 17.9962852273183, "lat": 59.2532232154233}, {"StopAreaNumber": 5161, "StopAreaName": "Huddinge", "lon": 17.9804786386772, "lat": 59.2373966126058}, {"StopAreaNumber": 5171, "StopAreaName": "Flemingsberg", "lon": 17.9471769644139, "lat": 59.2190288346638}, {"StopAreaNumber": 5181, "StopAreaName": "Tullinge", "lon": 17.9037541544137, "lat": 59.2054500368457}, {"StopAreaNumber": 5191, "StopAreaName": "Tumba", "lon": 17.8370789197977, "lat": 59.1996506953171}, {"StopAreaNumber": 5201, "StopAreaName": "R\u00f6nninge", "lon": 17.751511388785, "lat": 59.1936031418383}, {"StopAreaNumber": 5211, "StopAreaName": "\u00d6stert\u00e4lje", "lon": 17.6614410184043, "lat": 59.1837859791684}, {"StopAreaNumber": 5221, "StopAreaName": "S\u00f6dert\u00e4lje hamn", "lon": 17.6463186073004, "lat": 59.1791254082757}, {"StopAreaNumber": 5231, "StopAreaName": "S\u00f6dert\u00e4lje centrum", "lon": 17.627291537472, "lat": 59.1920671534113}, {"StopAreaNumber": 5111, "StopAreaName": "Rosersberg", "lon": 17.8803407170898, "lat": 59.5830454794627}, {"StopAreaNumber": 5121, "StopAreaName": "M\u00e4rsta", "lon": 17.8612152563635, "lat": 59.6250364117111}], "410": [{"StopAreaNumber": 40231, "StopAreaName": "H\u00e4gerv\u00e4gen", "lon": 18.2006366436622, "lat": 59.3080400250664}, {"StopAreaNumber": 10591, "StopAreaName": "Londonviadukten", "lon": 18.0967644860371, "lat": 59.3147394769679}, {"StopAreaNumber": 40233, "StopAreaName": "Duvn\u00e4s skola", "lon": 18.2009468056972, "lat": 59.3055826920663}, {"StopAreaNumber": 10595, "StopAreaName": "Henriksdal", "lon": 18.1072312028769, "lat": 59.311582612208}, {"StopAreaNumber": 40235, "StopAreaName": "Ringparken", "lon": 18.2027770400656, "lat": 59.3030165685003}, {"StopAreaNumber": 40103, "StopAreaName": "Sickla bro", "lon": 18.1223723348487, "lat": 59.3068152243578}, {"StopAreaNumber": 40237, "StopAreaName": "Duvn\u00e4s tennisplan", "lon": 18.2057307929916, "lat": 59.3048121274841}, {"StopAreaNumber": 40107, "StopAreaName": "Nacka station", "lon": 18.1304414563285, "lat": 59.3068061742651}, {"StopAreaNumber": 40239, "StopAreaName": "Gamla all\u00e9n", "lon": 18.2045865707669, "lat": 59.3072668780669}, {"StopAreaNumber": 40109, "StopAreaName": "Finntorp", "lon": 18.138535643567, "lat": 59.3067782147752}, {"StopAreaNumber": 40242, "StopAreaName": "Salt\u00e4ngen", "lon": 18.2101501953536, "lat": 59.3084574716563}, {"StopAreaNumber": 40111, "StopAreaName": "J\u00e4rla station", "lon": 18.1522318799408, "lat": 59.3075110565597}, {"StopAreaNumber": 40113, "StopAreaName": "Lill\u00e4ngen", "lon": 18.1586311282292, "lat": 59.3073507264872}, {"StopAreaNumber": 40116, "StopAreaName": "Nacka Forum", "lon": 18.1654223276967, "lat": 59.3085389945019}, {"StopAreaNumber": 40175, "StopAreaName": "Stor\u00e4ngen", "lon": 18.1756436888832, "lat": 59.309074538491}, {"StopAreaNumber": 40177, "StopAreaName": "L\u00e5ngsj\u00f6strand", "lon": 18.1858866239268, "lat": 59.3090871648016}, {"StopAreaNumber": 40179, "StopAreaName": "Skogalund", "lon": 18.1934720348943, "lat": 59.3095590075214}, {"StopAreaNumber": 40181, "StopAreaName": "Ektorps centrum", "lon": 18.1993083383212, "lat": 59.3103813626181}, {"StopAreaNumber": 40106, "StopAreaName": "Alphyddan", "lon": 18.1267572993795, "lat": 59.3068628895199}, {"StopAreaNumber": 11002, "StopAreaName": "Slussen", "lon": 18.0721576068741, "lat": 59.3195002550837}], "414": [{"StopAreaNumber": 10591, "StopAreaName": "Londonviadukten", "lon": 18.0967644860371, "lat": 59.3147394769679}, {"StopAreaNumber": 40259, "StopAreaName": "Ekn\u00e4sv\u00e4gen", "lon": 18.2279651091061, "lat": 59.3117465250468}, {"StopAreaNumber": 10595, "StopAreaName": "Henriksdal", "lon": 18.1072312028769, "lat": 59.311582612208}, {"StopAreaNumber": 40261, "StopAreaName": "Tr\u00e4dg\u00e5rdsv\u00e4gen", "lon": 18.227684754569, "lat": 59.3100274990443}, {"StopAreaNumber": 40103, "StopAreaName": "Sickla bro", "lon": 18.1223723348487, "lat": 59.3068152243578}, {"StopAreaNumber": 40263, "StopAreaName": "Tollare", "lon": 18.23122466596, "lat": 59.3065849955514}, {"StopAreaNumber": 40107, "StopAreaName": "Nacka station", "lon": 18.1304414563285, "lat": 59.3068061742651}, {"StopAreaNumber": 40530, "StopAreaName": "Tollare torg", "lon": 18.2364512738902, "lat": 59.3019734442352}, {"StopAreaNumber": 40109, "StopAreaName": "Finntorp", "lon": 18.138535643567, "lat": 59.3067782147752}, {"StopAreaNumber": 40540, "StopAreaName": "Tollaretunneln", "lon": 18.2427884168635, "lat": 59.3027323942348}, {"StopAreaNumber": 40111, "StopAreaName": "J\u00e4rla station", "lon": 18.1522318799408, "lat": 59.3075110565597}, {"StopAreaNumber": 40265, "StopAreaName": "Mellanbergsv\u00e4gen", "lon": 18.2441453639662, "lat": 59.3049158638838}, {"StopAreaNumber": 40113, "StopAreaName": "Lill\u00e4ngen", "lon": 18.1586311282292, "lat": 59.3073507264872}, {"StopAreaNumber": 40267, "StopAreaName": "\u00c5ngb\u00e5tsv\u00e4gen", "lon": 18.2553416637899, "lat": 59.3056577108897}, {"StopAreaNumber": 40116, "StopAreaName": "Nacka Forum", "lon": 18.1654223276967, "lat": 59.3085389945019}, {"StopAreaNumber": 40319, "StopAreaName": "Junkerv\u00e4gen", "lon": 18.2605302999728, "lat": 59.3068622019722}, {"StopAreaNumber": 40175, "StopAreaName": "Stor\u00e4ngen", "lon": 18.1756436888832, "lat": 59.309074538491}, {"StopAreaNumber": 40323, "StopAreaName": "Sj\u00f6stugan", "lon": 18.2664153951942, "lat": 59.3078557637403}, {"StopAreaNumber": 40177, "StopAreaName": "L\u00e5ngsj\u00f6strand", "lon": 18.1858866239268, "lat": 59.3090871648016}, {"StopAreaNumber": 40325, "StopAreaName": "Kompassv\u00e4gen", "lon": 18.2763022299501, "lat": 59.3091683703409}, {"StopAreaNumber": 40179, "StopAreaName": "Skogalund", "lon": 18.1934720348943, "lat": 59.3095590075214}, {"StopAreaNumber": 40330, "StopAreaName": "Boo g\u00e5rd", "lon": 18.2826742975283, "lat": 59.3097209021985}, {"StopAreaNumber": 40181, "StopAreaName": "Ektorps centrum", "lon": 18.1993083383212, "lat": 59.3103813626181}, {"StopAreaNumber": 40331, "StopAreaName": "Dalkarlsv\u00e4gen", "lon": 18.2805414165343, "lat": 59.3146917796372},